{
  "generated_at": "2026-05-21T13:08:55.734269",
  "record_count": 6448,
  "records": [
    {
      "station_id": 1155,
      "station_name": "Sunfuel - ITC Maurya",
      "address": "ITC Maurya\nSardar Patel Marg, Akhaura Block,\nDiplomatic Enclave, Chanakyapuri,\nNew Delhi, Delhi 110021",
      "latitude": 28.5975,
      "longitude": 77.172897,
      "access_type": 1,
      "is_community_listed": 0,
      "map_pin_url": "https://d3orevttu06iqr.cloudfront.net/branding_logo/offline-pin/unavailable+pin.png",
      "focused_map_pin_url": "https://d3orevttu06iqr.cloudfront.net/branding_logo/unavailable+select.png"
    },
    {
      "station_id": 1158,
      "station_name": "Statiq Neelkanth Star Station",
      "address": "Neelkanth Star Karnal, NH 44, Gharunda, Kutail, Haryana 132114",
      "latitude": 29.601764,
      "longitude": 76.980731,
      "access_type": 1,
      "is_community_listed": 0,
      "map_pin_url": "https://d3orevttu06iqr.cloudfront.net/charging-pin/normal+pin.png",
      "focused_map_pin_url": "https://d3orevttu06iqr.cloudfront.net/charging-pin/Statiq+selected.png"
    },
    {
      "station_id": 1159,
      "station_name": "Statiq Galleria Market Station",
      "address": "DLF Phase IV, Sector 28, Gurugram, Haryana 122022",
      "latitude": 28.467724,
      "longitude": 77.082161,
      "access_type": 1,
      "is_community_listed": 0,
      "map_pin_url": "https://d3orevttu06iqr.cloudfront.net/charging-pin/Statiq+charging.png",
      "focused_map_pin_url": "https://d3orevttu06iqr.cloudfront.net/charging-pin/Statiq+charging+selected.png"
    },
    {
      "station_id": 1161,
      "station_name": "Statiq Highway Xpress (Jaipur-Delhi) Station",
      "address": "Jaipur to Delhi Road, Behror Midway, Behror, Rajasthan 301701",
      "latitude": 27.87414,
      "longitude": 76.276299,
      "access_type": 1,
      "is_community_listed": 0,
      "map_pin_url": "https://d3orevttu06iqr.cloudfront.net/charging-pin/normal+pin.png",
      "focused_map_pin_url": "https://d3orevttu06iqr.cloudfront.net/charging-pin/Statiq+selected.png"
    },
    {
      "station_id": 1162,
      "station_name": "Statiq Fun and Food Carnival Station",
      "address": "Fun and Food Carnival, NH 58, Khatauli Bypass, Bhainsi, Uttar Pradesh 251201",
      "latitude": 29.309559,
      "longitude": 77.721992,
      "access_type": 1,
      "is_community_listed": 0,
      "map_pin_url": "https://d3orevttu06iqr.cloudfront.net/charging-pin/normal+pin.png",
      "focused_map_pin_url": "https://d3orevttu06iqr.cloudfront.net/charging-pin/Statiq+selected.png"
    },
    {
      "station_id": 1173,
      "station_name": "Statiq Hotel Krishna Hansraj Una Station",
      "address": "Old Hoshiarpur Rd, Una, Himachal Pradesh 174303",
      "latitude": 31.4671,
      "longitude": 76.256859,
      "access_type": 1,
      "is_community_listed": 0,
      "map_pin_url": "https://d3orevttu06iqr.cloudfront.net/branding_logo/offline-pin/unavailable+pin.png",
      "focused_map_pin_url": "https://statiq-images-prod.s3.ap-south-1.amazonaws.com/branding_logo/offline-pin/unavailable+pin.png"
    },
    {
      "station_id": 1174,
      "station_name": "Statiq SG Jabli Station",
      "address": "VPO - Jabli, NH-22, Teh, Kasauli, Himachal Pradesh",
      "latitude": 30.878571,
      "longitude": 76.994904,
      "access_type": 1,
      "is_community_listed": 0,
      "map_pin_url": "https://d3orevttu06iqr.cloudfront.net/charging-pin/Statiq+charging.png",
      "focused_map_pin_url": "https://d3orevttu06iqr.cloudfront.net/charging-pin/Statiq+charging+selected.png"
    },
    {
      "station_id": 1180,
      "station_name": "SunFuel - 27 Summit (Private Charging Only for Residents)",
      "address": "No. 13, 1st Main Rd, Attibele Industrial Area, Bengaluru, Karnataka 562107",
      "latitude": 12.96414,
      "longitude": 77.59422,
      "access_type": 1,
      "is_community_listed": 0,
      "map_pin_url": "https://d3orevttu06iqr.cloudfront.net/charging-pin/Sunfuel+-+default.png",
      "focused_map_pin_url": "https://d3orevttu06iqr.cloudfront.net/charging-pin/Sunfuel+-+selected.png"
    },
    {
      "station_id": 1183,
      "station_name": "Statiq SG Karnal Station",
      "address": "131 km Milestone, G. T, GT Karnal Rd, near Karna Lake, Karnal, Haryana 132001",
      "latitude": 29.738705,
      "longitude": 76.975582,
      "access_type": 1,
      "is_community_listed": 0,
      "map_pin_url": "https://d3orevttu06iqr.cloudfront.net/charging-pin/normal+pin.png",
      "focused_map_pin_url": "https://d3orevttu06iqr.cloudfront.net/charging-pin/Statiq+selected.png"
    },
    {
      "station_id": 1202,
      "station_name": "Ireo Uptown Charging Station",
      "address": "Golf Course Ext Rd, Badshahpur, Sector 66, Gurugram, Haryana 122018",
      "latitude": 28.395901,
      "longitude": 77.059303,
      "access_type": 1,
      "is_community_listed": 0,
      "map_pin_url": "https://d3orevttu06iqr.cloudfront.net/charging-pin/EV+greens+default.png",
      "focused_map_pin_url": "https://d3orevttu06iqr.cloudfront.net/charging-pin/EV+Greens+-+selected.png"
    },
    {
      "station_id": 1204,
      "station_name": "VEEV A2B Kallar",
      "address": "A2B, Kallar Road, Mettupalayam, Tamil Nadu",
      "latitude": 11.3217,
      "longitude": 76.916298,
      "access_type": 1,
      "is_community_listed": 0,
      "map_pin_url": "https://statiq-images-prod.s3.ap-south-1.amazonaws.com/branding_logo/Vaari+Energy/vaari+energy+pin.png",
      "focused_map_pin_url": "https://statiq-images-prod.s3.ap-south-1.amazonaws.com/branding_logo/vaari+energy+selected.png"
    },
    {
      "station_id": 1233,
      "station_name": "Heritage City AC Charging Station",
      "address": "Heritage City 581-600 Flats, Heritage City, Sector 25, Gurugram, Haryana 122022",
      "latitude": 28.4823,
      "longitude": 77.076599,
      "access_type": 1,
      "is_community_listed": 0,
      "map_pin_url": "https://d3orevttu06iqr.cloudfront.net/charging-pin/EV+greens+default.png",
      "focused_map_pin_url": "https://d3orevttu06iqr.cloudfront.net/charging-pin/EV+Greens+-+selected.png"
    },
    {
      "station_id": 1234,
      "station_name": "Sunfuel - Hotel Fairmont Jaipur",
      "address": "Hotel Fairmont Jaipur, Riico, 2, Jaipur Engineering College Rd, Kukas, Rajasthan 302028",
      "latitude": 27.030701,
      "longitude": 75.8899,
      "access_type": 1,
      "is_community_listed": 0,
      "map_pin_url": "https://d3orevttu06iqr.cloudfront.net/branding_logo/offline-pin/unavailable+pin.png",
      "focused_map_pin_url": "https://d3orevttu06iqr.cloudfront.net/branding_logo/unavailable+select.png"
    },
    {
      "station_id": 1235,
      "station_name": "Sunfuel - Le Méridien Jaipur Resort Hotel Hotel & Spa",
      "address": "Le Méridien Jaipur Resort & Spa, Number 1 Riico, Kukas, Rajasthan 302028",
      "latitude": 27.032,
      "longitude": 75.888496,
      "access_type": 1,
      "is_community_listed": 0,
      "map_pin_url": "https://d3orevttu06iqr.cloudfront.net/branding_logo/offline-pin/unavailable+pin.png",
      "focused_map_pin_url": "https://d3orevttu06iqr.cloudfront.net/branding_logo/unavailable+select.png"
    },
    {
      "station_id": 1236,
      "station_name": "Sunfuel - The Westin Pushkar Resort & Spa",
      "address": "The Westin Pushkar Resort & Spa, Khasra No. 1242 1243, 1196/1726, Village Surajkund, Motisar Rd, Pushkar, Rajasthan 305022",
      "latitude": 26.4547,
      "longitude": 74.504601,
      "access_type": 1,
      "is_community_listed": 0,
      "map_pin_url": "https://d3orevttu06iqr.cloudfront.net/branding_logo/offline-pin/unavailable+pin.png",
      "focused_map_pin_url": "https://d3orevttu06iqr.cloudfront.net/branding_logo/unavailable+select.png"
    },
    {
      "station_id": 1238,
      "station_name": "Sunfuel - Jaipur Marriott Hotel",
      "address": "Hotel Jaipur Marriott, Near Ashram Marg, Jawahar Circle, Jaipur, Rajasthan 302015",
      "latitude": 26.841801,
      "longitude": 75.796204,
      "access_type": 1,
      "is_community_listed": 0,
      "map_pin_url": "https://d3orevttu06iqr.cloudfront.net/branding_logo/offline-pin/unavailable+pin.png",
      "focused_map_pin_url": "https://d3orevttu06iqr.cloudfront.net/branding_logo/unavailable+select.png"
    },
    {
      "station_id": 1339,
      "station_name": "Tellus Power DC Charging Station",
      "address": "AH47, Maharashtra 415406",
      "latitude": 17.0749,
      "longitude": 74.222702,
      "access_type": 1,
      "is_community_listed": 0,
      "map_pin_url": "https://d3orevttu06iqr.cloudfront.net/branding_logo/offline-pin/unavailable+pin.png",
      "focused_map_pin_url": "https://statiq-images-prod.s3.ap-south-1.amazonaws.com/branding_logo/offline-pin/unavailable+pin.png"
    },
    {
      "station_id": 1460,
      "station_name": "Statiq Highway King Behror Station",
      "address": "Highway King Behror, NH 8, 3 Kms from behror towards delhi, Behror, Rajasthan 301701",
      "latitude": 27.914499,
      "longitude": 76.314598,
      "access_type": 1,
      "is_community_listed": 0,
      "map_pin_url": "https://d3orevttu06iqr.cloudfront.net/charging-pin/normal+pin.png",
      "focused_map_pin_url": "https://d3orevttu06iqr.cloudfront.net/charging-pin/Statiq+selected.png"
    },
    {
      "station_id": 1461,
      "station_name": "Statiq Suket Cafe Station",
      "address": "Suket Cafe, Pungh, National Highway 21, Sundar Nagar, Himachal Pradesh 175018",
      "latitude": 31.515301,
      "longitude": 76.876503,
      "access_type": 1,
      "is_community_listed": 0,
      "map_pin_url": "https://d3orevttu06iqr.cloudfront.net/charging-pin/Statiq+charging.png",
      "focused_map_pin_url": "https://d3orevttu06iqr.cloudfront.net/charging-pin/Statiq+charging+selected.png"
    },
    {
      "station_id": 1462,
      "station_name": "Statiq McDonalds Gajraula Station",
      "address": "McDonald Gajraula, NH9-24 Salarpur, Dist, Gajraula, Uttar Pradesh 244235",
      "latitude": 28.8382,
      "longitude": 78.276398,
      "access_type": 1,
      "is_community_listed": 0,
      "map_pin_url": "https://d3orevttu06iqr.cloudfront.net/charging-pin/normal+pin.png",
      "focused_map_pin_url": "https://d3orevttu06iqr.cloudfront.net/charging-pin/Statiq+selected.png"
    },
    {
      "station_id": 1466,
      "station_name": "Sunfuel - Waterwoods Lodge & Resort",
      "address": "19, Karapura, N.Belthur Post Office, HD Kote Taluk, Nagarhole National Park, Karnataka 571114",
      "latitude": 11.9377,
      "longitude": 76.265503,
      "access_type": 1,
      "is_community_listed": 0,
      "map_pin_url": "https://d3orevttu06iqr.cloudfront.net/branding_logo/offline-pin/unavailable+pin.png",
      "focused_map_pin_url": "https://d3orevttu06iqr.cloudfront.net/branding_logo/unavailable+select.png"
    },
    {
      "station_id": 1480,
      "station_name": "Sunfuel - Crowne Plaza Gurgaon",
      "address": "Site No 2, Sector 29, Opposite Signature Tower, Gurugram, Haryana, 122001",
      "latitude": 28.4683,
      "longitude": 77.059898,
      "access_type": 1,
      "is_community_listed": 0,
      "map_pin_url": "https://d3orevttu06iqr.cloudfront.net/branding_logo/offline-pin/unavailable+pin.png",
      "focused_map_pin_url": "https://d3orevttu06iqr.cloudfront.net/branding_logo/unavailable+select.png"
    },
    {
      "station_id": 1486,
      "station_name": "PG Regency Resort DC Charging Station",
      "address": "PG Regency,Govind Garden,103/1B, Plot no.4, Mumbai Goa HighWay, Mahad-Raigad, Mahad, Maharashtra 402301 Ph no. 7039892236",
      "latitude": 18.085871,
      "longitude": 73.432579,
      "access_type": 1,
      "is_community_listed": 0,
      "map_pin_url": "https://statiq-images-prod.s3.ap-south-1.amazonaws.com/branding_logo/offline-pin/unavailable+pin.png",
      "focused_map_pin_url": "https://statiq-images-prod.s3.ap-south-1.amazonaws.com/branding_logo/unavailable+select.png"
    },
    {
      "station_id": 1490,
      "station_name": "Sunfuel - Bangalore Golf Club",
      "address": "2, High Grounds, Sankey Road,  Seshadripuram, Beside Sophia School,  Bengaluru, Karnataka 560020",
      "latitude": 12.986301,
      "longitude": 77.588501,
      "access_type": 1,
      "is_community_listed": 0,
      "map_pin_url": "https://d3orevttu06iqr.cloudfront.net/branding_logo/offline-pin/unavailable+pin.png",
      "focused_map_pin_url": "https://d3orevttu06iqr.cloudfront.net/branding_logo/unavailable+select.png"
    },
    {
      "station_id": 1509,
      "station_name": "DMIPL EV Charging Station, Ludhiana",
      "address": "Dalbir Makkar India Pvt. Ltd., Ludhiana-Malerkotla Road, Opp. J K Resort, Rania, Ludhiana - 141122 (Punjab), Phone no 9814215411, 9316916147",
      "latitude": 30.822149,
      "longitude": 75.866768,
      "access_type": 1,
      "is_community_listed": 0,
      "map_pin_url": "https://statiq-images-prod.s3.ap-south-1.amazonaws.com/branding_logo/offline-pin/unavailable+pin.png",
      "focused_map_pin_url": "https://statiq-images-prod.s3.ap-south-1.amazonaws.com/branding_logo/unavailable+select.png"
    },
    {
      "station_id": 1513,
      "station_name": "VEEV Brookfields",
      "address": "67-71, Dr Krishnasamy Mudaliyar Rd, Ram Nagar, Coimbatore, Tamil Nadu 641001",
      "latitude": 11.00791,
      "longitude": 76.96017,
      "access_type": 1,
      "is_community_listed": 0,
      "map_pin_url": "https://statiq-images-prod.s3.ap-south-1.amazonaws.com/charging-pin/Vaari+energy+charging.png",
      "focused_map_pin_url": "https://statiq-images-prod.s3.ap-south-1.amazonaws.com/charging-pin/Vaari+energy+charging+selected.png"
    },
    {
      "station_id": 1525,
      "station_name": "Nandavan DC Charging Station",
      "address": "Nandavan, Mahajan Wadi, Near Bhimeshwar Mandir, At Post Nagaon, Taluka Alibag, Dist. Raigarh, Pin 402204, Phone no Kedar Bane, +919923724004, Prashant Mahajan - +919619174428",
      "latitude": 18.6187,
      "longitude": 72.900703,
      "access_type": 1,
      "is_community_listed": 0,
      "map_pin_url": "https://d3orevttu06iqr.cloudfront.net/branding_logo/offline-pin/unavailable+pin.png",
      "focused_map_pin_url": "https://statiq-images-prod.s3.ap-south-1.amazonaws.com/branding_logo/offline-pin/unavailable+pin.png"
    },
    {
      "station_id": 1532,
      "station_name": "Sunfuel - Club Mahindra Resort - Tungi",
      "address": "Pavna Nagar, Maval Taluka, Tungi",
      "latitude": 18.663429,
      "longitude": 73.471657,
      "access_type": 1,
      "is_community_listed": 0,
      "map_pin_url": "https://d3orevttu06iqr.cloudfront.net/branding_logo/offline-pin/unavailable+pin.png",
      "focused_map_pin_url": "https://d3orevttu06iqr.cloudfront.net/branding_logo/unavailable+select.png"
    },
    {
      "station_id": 1536,
      "station_name": "ShriSamarth Beed Charging Station",
      "address": "EV Charging Station, Near Mancott Jining Gevrai Road, NH 61, Phule Pimpalgaon, Maharashtra 431142",
      "latitude": 19.1779,
      "longitude": 76.167999,
      "access_type": 1,
      "is_community_listed": 0,
      "map_pin_url": "https://statiq-images-prod.s3.ap-south-1.amazonaws.com/branding_logo/statiq/statiq+pin.png",
      "focused_map_pin_url": "https://statiq-images-prod.s3.ap-south-1.amazonaws.com/branding_logo/locations+statiq+selected+.png"
    },
    {
      "station_id": 1540,
      "station_name": "Statiq Unity Mall Vasai Station",
      "address": "Unity Mall, Stella Road, next to Big Bazzar, Bhabola, Vasai West, Maharashtra 401201",
      "latitude": 19.359301,
      "longitude": 72.812302,
      "access_type": 1,
      "is_community_listed": 0,
      "map_pin_url": "https://d3orevttu06iqr.cloudfront.net/charging-pin/normal+pin.png",
      "focused_map_pin_url": "https://d3orevttu06iqr.cloudfront.net/charging-pin/Statiq+selected.png"
    },
    {
      "station_id": 1541,
      "station_name": "Statiq Advant IT Park Station",
      "address": "Advant IT Park, Plot No. 7, Noida-Greater Noida Expy, Sector 142, Noida, Uttar Pradesh 201305",
      "latitude": 28.500422,
      "longitude": 77.41053,
      "access_type": 1,
      "is_community_listed": 0,
      "map_pin_url": "https://d3orevttu06iqr.cloudfront.net/charging-pin/normal+pin.png",
      "focused_map_pin_url": "https://d3orevttu06iqr.cloudfront.net/charging-pin/Statiq+selected.png"
    },
    {
      "station_id": 1548,
      "station_name": "Sunfuel - Holiday Inn Goa Candolim",
      "address": "Survey No. 52/5 & 8, Candolim, Bardez,",
      "latitude": 15.1589,
      "longitude": 73.947998,
      "access_type": 1,
      "is_community_listed": 0,
      "map_pin_url": "https://d3orevttu06iqr.cloudfront.net/branding_logo/offline-pin/unavailable+pin.png",
      "focused_map_pin_url": "https://d3orevttu06iqr.cloudfront.net/branding_logo/unavailable+select.png"
    },
    {
      "station_id": 1549,
      "station_name": "Sunfuel - Evolve Back, Kabini",
      "address": "Evolve Back Kuruba Safari Lodge, Beeramballi Village & Post, H.D.Kote Taluk,",
      "latitude": 11.927,
      "longitude": 76.266998,
      "access_type": 1,
      "is_community_listed": 0,
      "map_pin_url": "https://d3orevttu06iqr.cloudfront.net/branding_logo/offline-pin/unavailable+pin.png",
      "focused_map_pin_url": "https://d3orevttu06iqr.cloudfront.net/branding_logo/unavailable+select.png"
    },
    {
      "station_id": 1550,
      "station_name": "Sunfuel - SAI Trivandrum Golf Club",
      "address": "Golf Links Rd, Kowdiar Gardens, Kowdiar, Thiruvananthapuram, Kerala 695003",
      "latitude": 8.5234,
      "longitude": 76.966202,
      "access_type": 1,
      "is_community_listed": 0,
      "map_pin_url": "https://d3orevttu06iqr.cloudfront.net/branding_logo/offline-pin/unavailable+pin.png",
      "focused_map_pin_url": "https://d3orevttu06iqr.cloudfront.net/branding_logo/unavailable+select.png"
    },
    {
      "station_id": 1551,
      "station_name": "Sunfuel - Crowne Plaza Jaipur Tonk Road",
      "address": "Plot No SP 1, Sitapura Industrial Area, Tonk Road, Jaipur, Rajasthan, 302022",
      "latitude": 26.779699,
      "longitude": 75.828201,
      "access_type": 1,
      "is_community_listed": 0,
      "map_pin_url": "https://d3orevttu06iqr.cloudfront.net/branding_logo/offline-pin/unavailable+pin.png",
      "focused_map_pin_url": "https://d3orevttu06iqr.cloudfront.net/branding_logo/unavailable+select.png"
    },
    {
      "station_id": 1552,
      "station_name": "Sunfuel - Crowne Plaza Pune City Centre",
      "address": "37 & 37, Cts No, 1, Bund Garden Rd, next to Jehangir Hospital, Pune, Maharashtra 411001",
      "latitude": 18.5315,
      "longitude": 73.876801,
      "access_type": 1,
      "is_community_listed": 0,
      "map_pin_url": "https://d3orevttu06iqr.cloudfront.net/branding_logo/offline-pin/unavailable+pin.png",
      "focused_map_pin_url": "https://d3orevttu06iqr.cloudfront.net/branding_logo/unavailable+select.png"
    },
    {
      "station_id": 1554,
      "station_name": "Statiq Hans Resort Rewari Station",
      "address": "Hans Resort, 91 Milestone, Delhi-Jaipur Highway, near Kasola Chowk, Rewari, Haryana 123401",
      "latitude": 28.12569,
      "longitude": 76.637749,
      "access_type": 1,
      "is_community_listed": 0,
      "map_pin_url": "https://d3orevttu06iqr.cloudfront.net/charging-pin/Statiq+charging.png",
      "focused_map_pin_url": "https://d3orevttu06iqr.cloudfront.net/charging-pin/Statiq+charging+selected.png"
    },
    {
      "station_id": 1555,
      "station_name": "Statiq Saviruchi Veg Station",
      "address": "Saviruchi Veg, Sri Venkateshwara Arcade, Malavalli, Karnataka 571430",
      "latitude": 12.3847,
      "longitude": 77.0532,
      "access_type": 1,
      "is_community_listed": 0,
      "map_pin_url": "https://d3orevttu06iqr.cloudfront.net/charging-pin/normal+pin.png",
      "focused_map_pin_url": "https://d3orevttu06iqr.cloudfront.net/charging-pin/Statiq+selected.png"
    },
    {
      "station_id": 1556,
      "station_name": "Sunfuel - Club Mahindra Resort - Virajpet",
      "address": "Village Karada Post, Virajpet Road, Palangala, Coorg, Karnataka 571212",
      "latitude": 12.208901,
      "longitude": 75.735397,
      "access_type": 1,
      "is_community_listed": 0,
      "map_pin_url": "https://d3orevttu06iqr.cloudfront.net/branding_logo/offline-pin/unavailable+pin.png",
      "focused_map_pin_url": "https://d3orevttu06iqr.cloudfront.net/branding_logo/unavailable+select.png"
    },
    {
      "station_id": 1558,
      "station_name": "Sunfuel - Club Mahindra Resort - Madikeri",
      "address": "Galibeedu Road Kalakeri Nidugane Village, Madikeri, Karnataka - 571204",
      "latitude": 12.4407,
      "longitude": 75.716599,
      "access_type": 1,
      "is_community_listed": 0,
      "map_pin_url": "https://d3orevttu06iqr.cloudfront.net/branding_logo/offline-pin/unavailable+pin.png",
      "focused_map_pin_url": "https://d3orevttu06iqr.cloudfront.net/branding_logo/unavailable+select.png"
    },
    {
      "station_id": 1562,
      "station_name": "Sunfuel - Holiday Inn Chandigarh Zirakpur",
      "address": "Raksha Business Centre, Ambala Chandigarh Expressway,",
      "latitude": 30.6395,
      "longitude": 76.822403,
      "access_type": 1,
      "is_community_listed": 0,
      "map_pin_url": "https://d3orevttu06iqr.cloudfront.net/branding_logo/offline-pin/unavailable+pin.png",
      "focused_map_pin_url": "https://d3orevttu06iqr.cloudfront.net/branding_logo/unavailable+select.png"
    },
    {
      "station_id": 1571,
      "station_name": "Statiq M&M Meet Associates Sultanpur Station",
      "address": "Indira Gandhi International Airport",
      "latitude": 26.257177,
      "longitude": 82.033279,
      "access_type": 1,
      "is_community_listed": 0,
      "map_pin_url": "https://d3orevttu06iqr.cloudfront.net/charging-pin/normal+pin.png",
      "focused_map_pin_url": "https://d3orevttu06iqr.cloudfront.net/charging-pin/Statiq+selected.png"
    },
    {
      "station_id": 1572,
      "station_name": "Statiq JEM Mall Station",
      "address": "Indira Gandhi International Airport",
      "latitude": 26.871798,
      "longitude": 75.775429,
      "access_type": 1,
      "is_community_listed": 0,
      "map_pin_url": "https://d3orevttu06iqr.cloudfront.net/charging-pin/normal+pin.png",
      "focused_map_pin_url": "https://d3orevttu06iqr.cloudfront.net/charging-pin/Statiq+selected.png"
    },
    {
      "station_id": 1574,
      "station_name": "TDPL Marshalls corner",
      "address": null,
      "latitude": 26.9028,
      "longitude": 75.752,
      "access_type": 1,
      "is_community_listed": 0,
      "map_pin_url": "https://d3orevttu06iqr.cloudfront.net/charging-pin/normal+pin.png",
      "focused_map_pin_url": "https://d3orevttu06iqr.cloudfront.net/charging-pin/Statiq+selected.png"
    },
    {
      "station_id": 1576,
      "station_name": "Statiq Hotel The Executive Inn Station",
      "address": null,
      "latitude": 19.7591,
      "longitude": 74.476402,
      "access_type": 1,
      "is_community_listed": 0,
      "map_pin_url": "https://d3orevttu06iqr.cloudfront.net/branding_logo/offline-pin/unavailable+pin.png",
      "focused_map_pin_url": "https://statiq-images-prod.s3.ap-south-1.amazonaws.com/branding_logo/offline-pin/unavailable+pin.png"
    },
    {
      "station_id": 1579,
      "station_name": "Statiq Savoy Suites Manesar Station",
      "address": "Sector 1, Manesar",
      "latitude": 28.366404,
      "longitude": 76.944302,
      "access_type": 1,
      "is_community_listed": 0,
      "map_pin_url": "https://d3orevttu06iqr.cloudfront.net/charging-pin/normal+pin.png",
      "focused_map_pin_url": "https://d3orevttu06iqr.cloudfront.net/charging-pin/Statiq+selected.png"
    },
    {
      "station_id": 1583,
      "station_name": "TDPL Jaisinghpura EV Charging Station",
      "address": null,
      "latitude": 26.88,
      "longitude": 75.614,
      "access_type": 1,
      "is_community_listed": 0,
      "map_pin_url": "https://d3orevttu06iqr.cloudfront.net/charging-pin/normal+pin.png",
      "focused_map_pin_url": "https://d3orevttu06iqr.cloudfront.net/charging-pin/Statiq+selected.png"
    },
    {
      "station_id": 1586,
      "station_name": "Statiq Bhajan Singh Da Dhabha Station",
      "address": null,
      "latitude": 18.7005,
      "longitude": 73.693298,
      "access_type": 1,
      "is_community_listed": 0,
      "map_pin_url": "https://d3orevttu06iqr.cloudfront.net/branding_logo/offline-pin/unavailable+pin.png",
      "focused_map_pin_url": "https://statiq-images-prod.s3.ap-south-1.amazonaws.com/branding_logo/offline-pin/unavailable+pin.png"
    },
    {
      "station_id": 1587,
      "station_name": "Sunfuel - Riverside by Aahma",
      "address": null,
      "latitude": 29.48,
      "longitude": 79.150002,
      "access_type": 1,
      "is_community_listed": 0,
      "map_pin_url": "https://d3orevttu06iqr.cloudfront.net/branding_logo/offline-pin/unavailable+pin.png",
      "focused_map_pin_url": "https://d3orevttu06iqr.cloudfront.net/branding_logo/unavailable+select.png"
    },
    {
      "station_id": 1588,
      "station_name": "Sunfuel - Holiday Inn Kolkata Airport",
      "address": null,
      "latitude": 22.623301,
      "longitude": 88.443398,
      "access_type": 1,
      "is_community_listed": 0,
      "map_pin_url": "https://d3orevttu06iqr.cloudfront.net/branding_logo/offline-pin/unavailable+pin.png",
      "focused_map_pin_url": "https://d3orevttu06iqr.cloudfront.net/branding_logo/unavailable+select.png"
    },
    {
      "station_id": 1594,
      "station_name": "Statiq Mehak Garden Station",
      "address": null,
      "latitude": 29.527678,
      "longitude": 75.132639,
      "access_type": 1,
      "is_community_listed": 0,
      "map_pin_url": "https://d3orevttu06iqr.cloudfront.net/charging-pin/normal+pin.png",
      "focused_map_pin_url": "https://d3orevttu06iqr.cloudfront.net/charging-pin/Statiq+selected.png"
    },
    {
      "station_id": 1595,
      "station_name": "Sunfuel - Radisson Lonavala (Resort Guests)",
      "address": null,
      "latitude": 18.7735,
      "longitude": 73.399101,
      "access_type": 1,
      "is_community_listed": 0,
      "map_pin_url": "https://d3orevttu06iqr.cloudfront.net/branding_logo/offline-pin/unavailable+pin.png",
      "focused_map_pin_url": "https://d3orevttu06iqr.cloudfront.net/branding_logo/unavailable+select.png"
    },
    {
      "station_id": 1596,
      "station_name": "Sunfuel - Radisson Blu Hotel Amritsar",
      "address": null,
      "latitude": 31.707069,
      "longitude": 74.819283,
      "access_type": 1,
      "is_community_listed": 0,
      "map_pin_url": "https://d3orevttu06iqr.cloudfront.net/branding_logo/offline-pin/unavailable+pin.png",
      "focused_map_pin_url": "https://d3orevttu06iqr.cloudfront.net/branding_logo/unavailable+select.png"
    },
    {
      "station_id": 1598,
      "station_name": "Sunfuel - Century Ethos",
      "address": null,
      "latitude": 13.06,
      "longitude": 77.589996,
      "access_type": 1,
      "is_community_listed": 0,
      "map_pin_url": "https://d3orevttu06iqr.cloudfront.net/branding_logo/offline-pin/unavailable+pin.png",
      "focused_map_pin_url": "https://d3orevttu06iqr.cloudfront.net/branding_logo/unavailable+select.png"
    },
    {
      "station_id": 1600,
      "station_name": "Statiq Savoy Suites Noida Station",
      "address": null,
      "latitude": 28.580385,
      "longitude": 77.3153,
      "access_type": 1,
      "is_community_listed": 0,
      "map_pin_url": "https://d3orevttu06iqr.cloudfront.net/charging-pin/normal+pin.png",
      "focused_map_pin_url": "https://d3orevttu06iqr.cloudfront.net/charging-pin/Statiq+selected.png"
    },
    {
      "station_id": 1601,
      "station_name": "Statiq Savoy Suites Greater Noida Station",
      "address": null,
      "latitude": 28.4648,
      "longitude": 77.5084,
      "access_type": 1,
      "is_community_listed": 0,
      "map_pin_url": "https://d3orevttu06iqr.cloudfront.net/charging-pin/normal+pin.png",
      "focused_map_pin_url": "https://d3orevttu06iqr.cloudfront.net/charging-pin/Statiq+selected.png"
    },
    {
      "station_id": 1603,
      "station_name": "Statiq Aman Hotel Shahbad Station",
      "address": null,
      "latitude": 30.205579,
      "longitude": 76.857331,
      "access_type": 1,
      "is_community_listed": 0,
      "map_pin_url": "https://d3orevttu06iqr.cloudfront.net/charging-pin/normal+pin.png",
      "focused_map_pin_url": "https://d3orevttu06iqr.cloudfront.net/charging-pin/Statiq+selected.png"
    },
    {
      "station_id": 1604,
      "station_name": "Sunfuel - Radisson Jaipur City Center",
      "address": null,
      "latitude": 26.920641,
      "longitude": 75.794563,
      "access_type": 1,
      "is_community_listed": 0,
      "map_pin_url": "https://d3orevttu06iqr.cloudfront.net/branding_logo/offline-pin/unavailable+pin.png",
      "focused_map_pin_url": "https://d3orevttu06iqr.cloudfront.net/branding_logo/unavailable+select.png"
    },
    {
      "station_id": 1605,
      "station_name": "Sunfuel - Radisson Udaipur",
      "address": null,
      "latitude": 24.5863,
      "longitude": 73.710503,
      "access_type": 1,
      "is_community_listed": 0,
      "map_pin_url": "https://d3orevttu06iqr.cloudfront.net/branding_logo/offline-pin/unavailable+pin.png",
      "focused_map_pin_url": "https://d3orevttu06iqr.cloudfront.net/branding_logo/unavailable+select.png"
    },
    {
      "station_id": 1607,
      "station_name": "Statiq Evershine Tower Jaipur Station",
      "address": null,
      "latitude": 26.9121,
      "longitude": 75.743103,
      "access_type": 1,
      "is_community_listed": 0,
      "map_pin_url": "https://d3orevttu06iqr.cloudfront.net/branding_logo/offline-pin/unavailable+pin.png",
      "focused_map_pin_url": "https://statiq-images-prod.s3.ap-south-1.amazonaws.com/branding_logo/offline-pin/unavailable+pin.png"
    },
    {
      "station_id": 1608,
      "station_name": "MESCOM Bhavan Charging Station",
      "address": null,
      "latitude": 12.8869,
      "longitude": 74.841797,
      "access_type": 1,
      "is_community_listed": 0,
      "map_pin_url": "https://statiq-images-prod.s3.ap-south-1.amazonaws.com/branding_logo/statiq/statiq+pin.png",
      "focused_map_pin_url": "https://statiq-images-prod.s3.ap-south-1.amazonaws.com/branding_logo/locations+statiq+selected+.png"
    },
    {
      "station_id": 1610,
      "station_name": "Statiq Hotel Shree Veg Solapur Station",
      "address": null,
      "latitude": 18.231529,
      "longitude": 74.773003,
      "access_type": 1,
      "is_community_listed": 0,
      "map_pin_url": "https://d3orevttu06iqr.cloudfront.net/branding_logo/offline-pin/unavailable+pin.png",
      "focused_map_pin_url": "https://statiq-images-prod.s3.ap-south-1.amazonaws.com/branding_logo/offline-pin/unavailable+pin.png"
    },
    {
      "station_id": 1611,
      "station_name": "Statiq Subway Bhiwadi Station",
      "address": null,
      "latitude": 28.196409,
      "longitude": 76.812057,
      "access_type": 1,
      "is_community_listed": 0,
      "map_pin_url": "https://d3orevttu06iqr.cloudfront.net/charging-pin/normal+pin.png",
      "focused_map_pin_url": "https://d3orevttu06iqr.cloudfront.net/charging-pin/Statiq+selected.png"
    },
    {
      "station_id": 1612,
      "station_name": "Statiq Asli Pappu Dhaba Kosi Kalan Station",
      "address": null,
      "latitude": 27.832701,
      "longitude": 77.419403,
      "access_type": 1,
      "is_community_listed": 0,
      "map_pin_url": "https://d3orevttu06iqr.cloudfront.net/charging-pin/normal+pin.png",
      "focused_map_pin_url": "https://d3orevttu06iqr.cloudfront.net/charging-pin/Statiq+selected.png"
    },
    {
      "station_id": 1613,
      "station_name": "Statiq 140% Veg Gulshan Dhaba Kotwan Station",
      "address": null,
      "latitude": 27.84745,
      "longitude": 77.409248,
      "access_type": 1,
      "is_community_listed": 0,
      "map_pin_url": "https://d3orevttu06iqr.cloudfront.net/charging-pin/normal+pin.png",
      "focused_map_pin_url": "https://d3orevttu06iqr.cloudfront.net/charging-pin/Statiq+selected.png"
    },
    {
      "station_id": 1614,
      "station_name": "Sunfuel - Radisson Blu Hotel Ahmedabad",
      "address": null,
      "latitude": 23.0242,
      "longitude": 72.556999,
      "access_type": 1,
      "is_community_listed": 0,
      "map_pin_url": "https://d3orevttu06iqr.cloudfront.net/charging-pin/Sunfuel+-+default.png",
      "focused_map_pin_url": "https://d3orevttu06iqr.cloudfront.net/charging-pin/Sunfuel+-+selected.png"
    },
    {
      "station_id": 1618,
      "station_name": "Sunfuel - Radisson Blu Plaza Delhi Airport",
      "address": null,
      "latitude": 28.5438,
      "longitude": 77.120201,
      "access_type": 1,
      "is_community_listed": 0,
      "map_pin_url": "https://d3orevttu06iqr.cloudfront.net/branding_logo/offline-pin/unavailable+pin.png",
      "focused_map_pin_url": "https://d3orevttu06iqr.cloudfront.net/branding_logo/unavailable+select.png"
    },
    {
      "station_id": 1620,
      "station_name": "MESCOM Mudigere Charging Station",
      "address": null,
      "latitude": 13.1459,
      "longitude": 75.641899,
      "access_type": 1,
      "is_community_listed": 0,
      "map_pin_url": "https://statiq-images-prod.s3.ap-south-1.amazonaws.com/branding_logo/statiq/statiq+pin.png",
      "focused_map_pin_url": "https://statiq-images-prod.s3.ap-south-1.amazonaws.com/branding_logo/locations+statiq+selected+.png"
    },
    {
      "station_id": 1621,
      "station_name": "Karkala Charging Station",
      "address": null,
      "latitude": 13.224446,
      "longitude": 74.980209,
      "access_type": 1,
      "is_community_listed": 0,
      "map_pin_url": "https://statiq-images-prod.s3.ap-south-1.amazonaws.com/branding_logo/offline-pin/unavailable+pin.png",
      "focused_map_pin_url": "https://statiq-images-prod.s3.ap-south-1.amazonaws.com/branding_logo/unavailable+select.png"
    },
    {
      "station_id": 1625,
      "station_name": "Kundapura Charging Station",
      "address": null,
      "latitude": 13.618559,
      "longitude": 74.691902,
      "access_type": 1,
      "is_community_listed": 0,
      "map_pin_url": "https://statiq-images-prod.s3.ap-south-1.amazonaws.com/branding_logo/offline-pin/unavailable+pin.png",
      "focused_map_pin_url": "https://statiq-images-prod.s3.ap-south-1.amazonaws.com/branding_logo/unavailable+select.png"
    },
    {
      "station_id": 1626,
      "station_name": "Manipal Charging Station",
      "address": null,
      "latitude": 13.333392,
      "longitude": 74.788429,
      "access_type": 1,
      "is_community_listed": 0,
      "map_pin_url": "https://statiq-images-prod.s3.ap-south-1.amazonaws.com/branding_logo/offline-pin/unavailable+pin.png",
      "focused_map_pin_url": "https://statiq-images-prod.s3.ap-south-1.amazonaws.com/branding_logo/unavailable+select.png"
    },
    {
      "station_id": 1630,
      "station_name": "MESCOM Nandi Gudda Charging Station",
      "address": null,
      "latitude": 12.8547,
      "longitude": 74.849197,
      "access_type": 1,
      "is_community_listed": 0,
      "map_pin_url": "https://statiq-images-prod.s3.ap-south-1.amazonaws.com/branding_logo/offline-pin/unavailable+pin.png",
      "focused_map_pin_url": "https://statiq-images-prod.s3.ap-south-1.amazonaws.com/branding_logo/unavailable+select.png"
    },
    {
      "station_id": 1636,
      "station_name": "MESCOM Mannagudda Charging Station",
      "address": null,
      "latitude": 12.883258,
      "longitude": 74.834839,
      "access_type": 1,
      "is_community_listed": 0,
      "map_pin_url": "https://statiq-images-prod.s3.ap-south-1.amazonaws.com/branding_logo/offline-pin/unavailable+pin.png",
      "focused_map_pin_url": "https://statiq-images-prod.s3.ap-south-1.amazonaws.com/branding_logo/unavailable+select.png"
    },
    {
      "station_id": 1641,
      "station_name": "Statiq Park Plaza Gurgaon Station",
      "address": "B-BLOCK, Sushant Lok Phase I, Sector 43",
      "latitude": 28.4597,
      "longitude": 77.075798,
      "access_type": 1,
      "is_community_listed": 0,
      "map_pin_url": "https://d3orevttu06iqr.cloudfront.net/branding_logo/offline-pin/unavailable+pin.png",
      "focused_map_pin_url": "https://statiq-images-prod.s3.ap-south-1.amazonaws.com/branding_logo/offline-pin/unavailable+pin.png"
    },
    {
      "station_id": 1643,
      "station_name": "PADMASHREE Charging Station",
      "address": null,
      "latitude": 13.074,
      "longitude": 75.002502,
      "access_type": 1,
      "is_community_listed": 0,
      "map_pin_url": "https://statiq-images-prod.s3.ap-south-1.amazonaws.com/branding_logo/offline-pin/unavailable+pin.png",
      "focused_map_pin_url": "https://statiq-images-prod.s3.ap-south-1.amazonaws.com/branding_logo/unavailable+select.png"
    },
    {
      "station_id": 1644,
      "station_name": "Statiq Hotel Open Umbrella Station",
      "address": null,
      "latitude": 18.259439,
      "longitude": 73.262703,
      "access_type": 1,
      "is_community_listed": 0,
      "map_pin_url": "https://d3orevttu06iqr.cloudfront.net/charging-pin/normal+pin.png",
      "focused_map_pin_url": "https://d3orevttu06iqr.cloudfront.net/charging-pin/Statiq+selected.png"
    },
    {
      "station_id": 1661,
      "station_name": "Statiq x TATA.ev Crystal World Station",
      "address": null,
      "latitude": 29.900118,
      "longitude": 77.985222,
      "access_type": 1,
      "is_community_listed": 0,
      "map_pin_url": "https://d3orevttu06iqr.cloudfront.net/charging-pin/normal+pin.png",
      "focused_map_pin_url": "https://d3orevttu06iqr.cloudfront.net/charging-pin/Statiq+selected.png"
    },
    {
      "station_id": 1662,
      "station_name": "Statiq Hotel Prem Plaza Karnal Station",
      "address": null,
      "latitude": 29.691919,
      "longitude": 76.977997,
      "access_type": 1,
      "is_community_listed": 0,
      "map_pin_url": "https://d3orevttu06iqr.cloudfront.net/charging-pin/normal+pin.png",
      "focused_map_pin_url": "https://d3orevttu06iqr.cloudfront.net/charging-pin/Statiq+selected.png"
    },
    {
      "station_id": 1663,
      "station_name": "Kota Section Office Building MESCOM",
      "address": null,
      "latitude": 13.5169,
      "longitude": 74.706902,
      "access_type": 1,
      "is_community_listed": 0,
      "map_pin_url": "https://statiq-images-prod.s3.ap-south-1.amazonaws.com/branding_logo/offline-pin/unavailable+pin.png",
      "focused_map_pin_url": "https://statiq-images-prod.s3.ap-south-1.amazonaws.com/branding_logo/unavailable+select.png"
    },
    {
      "station_id": 1671,
      "station_name": "Balehonnur Subdivision Office Charging Station",
      "address": null,
      "latitude": 13.3237,
      "longitude": 75.5112,
      "access_type": 1,
      "is_community_listed": 0,
      "map_pin_url": "https://statiq-images-prod.s3.ap-south-1.amazonaws.com/branding_logo/statiq/statiq+pin.png",
      "focused_map_pin_url": "https://statiq-images-prod.s3.ap-south-1.amazonaws.com/branding_logo/locations+statiq+selected+.png"
    },
    {
      "station_id": 1672,
      "station_name": "Kalasa Section-1 Office Charging Station",
      "address": null,
      "latitude": 13.23468,
      "longitude": 75.356934,
      "access_type": 1,
      "is_community_listed": 0,
      "map_pin_url": "https://statiq-images-prod.s3.ap-south-1.amazonaws.com/branding_logo/offline-pin/unavailable+pin.png",
      "focused_map_pin_url": "https://statiq-images-prod.s3.ap-south-1.amazonaws.com/branding_logo/unavailable+select.png"
    },
    {
      "station_id": 1686,
      "station_name": "City Sub Division Sagara Charging Station",
      "address": null,
      "latitude": 14.1689,
      "longitude": 75.020691,
      "access_type": 1,
      "is_community_listed": 0,
      "map_pin_url": "https://statiq-images-prod.s3.ap-south-1.amazonaws.com/branding_logo/offline-pin/unavailable+pin.png",
      "focused_map_pin_url": "https://statiq-images-prod.s3.ap-south-1.amazonaws.com/branding_logo/unavailable+select.png"
    },
    {
      "station_id": 1688,
      "station_name": "Thirthahalli Sub Division Office Charging Station",
      "address": null,
      "latitude": 13.6944,
      "longitude": 75.245178,
      "access_type": 1,
      "is_community_listed": 0,
      "map_pin_url": "https://statiq-images-prod.s3.ap-south-1.amazonaws.com/branding_logo/offline-pin/unavailable+pin.png",
      "focused_map_pin_url": "https://statiq-images-prod.s3.ap-south-1.amazonaws.com/branding_logo/unavailable+select.png"
    },
    {
      "station_id": 1692,
      "station_name": "Soraba Sub Division Office Charging Station",
      "address": null,
      "latitude": 14.3831,
      "longitude": 75.105797,
      "access_type": 1,
      "is_community_listed": 0,
      "map_pin_url": "https://statiq-images-prod.s3.ap-south-1.amazonaws.com/branding_logo/offline-pin/unavailable+pin.png",
      "focused_map_pin_url": "https://statiq-images-prod.s3.ap-south-1.amazonaws.com/branding_logo/unavailable+select.png"
    },
    {
      "station_id": 1696,
      "station_name": "Shimoga CSD 3 Charging Station",
      "address": null,
      "latitude": 13.93931,
      "longitude": 75.540497,
      "access_type": 1,
      "is_community_listed": 0,
      "map_pin_url": "https://statiq-images-prod.s3.ap-south-1.amazonaws.com/branding_logo/offline-pin/unavailable+pin.png",
      "focused_map_pin_url": "https://statiq-images-prod.s3.ap-south-1.amazonaws.com/branding_logo/unavailable+select.png"
    },
    {
      "station_id": 1699,
      "station_name": "MESCOM Birur Sub Division Office Charging Station",
      "address": null,
      "latitude": 13.6133,
      "longitude": 75.984703,
      "access_type": 1,
      "is_community_listed": 0,
      "map_pin_url": "https://statiq-images-prod.s3.ap-south-1.amazonaws.com/branding_logo/offline-pin/unavailable+pin.png",
      "focused_map_pin_url": "https://statiq-images-prod.s3.ap-south-1.amazonaws.com/branding_logo/unavailable+select.png"
    },
    {
      "station_id": 1702,
      "station_name": "Chikmagaluru USD Charging Station",
      "address": null,
      "latitude": 13.3318,
      "longitude": 75.772903,
      "access_type": 1,
      "is_community_listed": 0,
      "map_pin_url": "https://statiq-images-prod.s3.ap-south-1.amazonaws.com/branding_logo/statiq/statiq+pin.png",
      "focused_map_pin_url": "https://statiq-images-prod.s3.ap-south-1.amazonaws.com/branding_logo/locations+statiq+selected+.png"
    },
    {
      "station_id": 1707,
      "station_name": "Statiq Bikanervala Sec-29 Station",
      "address": "3-5 Near Leisure Valley Park, City Center, Sector 29 DLF",
      "latitude": 28.468958,
      "longitude": 77.063644,
      "access_type": 1,
      "is_community_listed": 0,
      "map_pin_url": "https://d3orevttu06iqr.cloudfront.net/branding_logo/offline-pin/unavailable+pin.png",
      "focused_map_pin_url": "https://statiq-images-prod.s3.ap-south-1.amazonaws.com/branding_logo/offline-pin/unavailable+pin.png"
    },
    {
      "station_id": 1713,
      "station_name": "Dharmasthala Section Office Charging Station",
      "address": null,
      "latitude": 12.9461,
      "longitude": 75.380898,
      "access_type": 1,
      "is_community_listed": 0,
      "map_pin_url": "https://statiq-images-prod.s3.ap-south-1.amazonaws.com/branding_logo/offline-pin/unavailable+pin.png",
      "focused_map_pin_url": "https://statiq-images-prod.s3.ap-south-1.amazonaws.com/branding_logo/unavailable+select.png"
    },
    {
      "station_id": 1715,
      "station_name": "Moodbidri Sub Division Office Charging Station",
      "address": null,
      "latitude": 13.0655,
      "longitude": 75.002899,
      "access_type": 1,
      "is_community_listed": 0,
      "map_pin_url": "https://statiq-images-prod.s3.ap-south-1.amazonaws.com/branding_logo/offline-pin/unavailable+pin.png",
      "focused_map_pin_url": "https://statiq-images-prod.s3.ap-south-1.amazonaws.com/branding_logo/unavailable+select.png"
    },
    {
      "station_id": 1717,
      "station_name": "Kaikamba Sub Division Office Charging Station",
      "address": null,
      "latitude": 12.943,
      "longitude": 74.926102,
      "access_type": 1,
      "is_community_listed": 0,
      "map_pin_url": "https://statiq-images-prod.s3.ap-south-1.amazonaws.com/branding_logo/offline-pin/unavailable+pin.png",
      "focused_map_pin_url": "https://statiq-images-prod.s3.ap-south-1.amazonaws.com/branding_logo/unavailable+select.png"
    },
    {
      "station_id": 1718,
      "station_name": "Mescom Division Office Bantwal",
      "address": null,
      "latitude": 12.8789,
      "longitude": 75.030899,
      "access_type": 1,
      "is_community_listed": 0,
      "map_pin_url": "https://statiq-images-prod.s3.ap-south-1.amazonaws.com/branding_logo/statiq/statiq+pin.png",
      "focused_map_pin_url": "https://statiq-images-prod.s3.ap-south-1.amazonaws.com/branding_logo/locations+statiq+selected+.png"
    },
    {
      "station_id": 1719,
      "station_name": "Kavoor Division Office Charging Station",
      "address": null,
      "latitude": 12.9244,
      "longitude": 74.863701,
      "access_type": 1,
      "is_community_listed": 0,
      "map_pin_url": "https://statiq-images-prod.s3.ap-south-1.amazonaws.com/branding_logo/offline-pin/unavailable+pin.png",
      "focused_map_pin_url": "https://statiq-images-prod.s3.ap-south-1.amazonaws.com/branding_logo/unavailable+select.png"
    },
    {
      "station_id": 1721,
      "station_name": "Statiq Hotel Madhavi Station",
      "address": null,
      "latitude": 24.840981,
      "longitude": 72.983627,
      "access_type": 1,
      "is_community_listed": 0,
      "map_pin_url": "https://d3orevttu06iqr.cloudfront.net/charging-pin/normal+pin.png",
      "focused_map_pin_url": "https://d3orevttu06iqr.cloudfront.net/charging-pin/Statiq+selected.png"
    },
    {
      "station_id": 1723,
      "station_name": "Statiq Chitrakoot Resorts and Restaurant Station",
      "address": null,
      "latitude": 24.83456,
      "longitude": 74.569504,
      "access_type": 1,
      "is_community_listed": 0,
      "map_pin_url": "https://d3orevttu06iqr.cloudfront.net/branding_logo/offline-pin/unavailable+pin.png",
      "focused_map_pin_url": "https://statiq-images-prod.s3.ap-south-1.amazonaws.com/branding_logo/offline-pin/unavailable+pin.png"
    },
    {
      "station_id": 1724,
      "station_name": "Sunfuel - Club Mahindra Resort - Puducherry",
      "address": null,
      "latitude": 11.8065,
      "longitude": 79.797096,
      "access_type": 1,
      "is_community_listed": 0,
      "map_pin_url": "https://d3orevttu06iqr.cloudfront.net/branding_logo/offline-pin/unavailable+pin.png",
      "focused_map_pin_url": "https://d3orevttu06iqr.cloudfront.net/branding_logo/unavailable+select.png"
    },
    {
      "station_id": 1726,
      "station_name": "Sunfuel - Amolak Towers Solan",
      "address": null,
      "latitude": 30.9077,
      "longitude": 77.092796,
      "access_type": 1,
      "is_community_listed": 0,
      "map_pin_url": "https://d3orevttu06iqr.cloudfront.net/branding_logo/offline-pin/unavailable+pin.png",
      "focused_map_pin_url": "https://d3orevttu06iqr.cloudfront.net/branding_logo/unavailable+select.png"
    },
    {
      "station_id": 1727,
      "station_name": "Sunfuel - Radisson Jass Shimla",
      "address": null,
      "latitude": 31.1122,
      "longitude": 77.177101,
      "access_type": 1,
      "is_community_listed": 0,
      "map_pin_url": "https://d3orevttu06iqr.cloudfront.net/branding_logo/offline-pin/unavailable+pin.png",
      "focused_map_pin_url": "https://d3orevttu06iqr.cloudfront.net/branding_logo/unavailable+select.png"
    },
    {
      "station_id": 1728,
      "station_name": "Statiq JMD Pacific Square Station",
      "address": "95A PartII, Chander Nagar, Sector 15",
      "latitude": 28.463993,
      "longitude": 77.048721,
      "access_type": 1,
      "is_community_listed": 0,
      "map_pin_url": "https://d3orevttu06iqr.cloudfront.net/charging-pin/normal+pin.png",
      "focused_map_pin_url": "https://d3orevttu06iqr.cloudfront.net/charging-pin/Statiq+selected.png"
    },
    {
      "station_id": 1729,
      "station_name": "Statiq JMD Regent Square Station",
      "address": "Mehrauli-Gurgaon Rd, Heritage City, Sector 25",
      "latitude": 28.48147,
      "longitude": 77.085281,
      "access_type": 1,
      "is_community_listed": 0,
      "map_pin_url": "https://d3orevttu06iqr.cloudfront.net/charging-pin/normal+pin.png",
      "focused_map_pin_url": "https://d3orevttu06iqr.cloudfront.net/charging-pin/Statiq+selected.png"
    },
    {
      "station_id": 1731,
      "station_name": "Sunfuel - Home Awaits 357 Bengaluru",
      "address": null,
      "latitude": 12.9669,
      "longitude": 77.716003,
      "access_type": 1,
      "is_community_listed": 0,
      "map_pin_url": "https://d3orevttu06iqr.cloudfront.net/branding_logo/offline-pin/unavailable+pin.png",
      "focused_map_pin_url": "https://d3orevttu06iqr.cloudfront.net/branding_logo/unavailable+select.png"
    },
    {
      "station_id": 1732,
      "station_name": "Sunfuel - Radisson Blu Hotel & Spa, Nashik",
      "address": null,
      "latitude": 19.9473,
      "longitude": 73.755997,
      "access_type": 1,
      "is_community_listed": 0,
      "map_pin_url": "https://d3orevttu06iqr.cloudfront.net/branding_logo/offline-pin/unavailable+pin.png",
      "focused_map_pin_url": "https://d3orevttu06iqr.cloudfront.net/branding_logo/unavailable+select.png"
    },
    {
      "station_id": 1733,
      "station_name": "Sunfuel - Country Inn & Suites Manipal",
      "address": null,
      "latitude": 13.3602,
      "longitude": 74.785202,
      "access_type": 1,
      "is_community_listed": 0,
      "map_pin_url": "https://d3orevttu06iqr.cloudfront.net/branding_logo/offline-pin/unavailable+pin.png",
      "focused_map_pin_url": "https://d3orevttu06iqr.cloudfront.net/branding_logo/unavailable+select.png"
    },
    {
      "station_id": 1734,
      "station_name": "Sunfuel - Radisson Blu Resort Goa Cavelossim Beach",
      "address": null,
      "latitude": 15.1761,
      "longitude": 73.947098,
      "access_type": 1,
      "is_community_listed": 0,
      "map_pin_url": "https://d3orevttu06iqr.cloudfront.net/branding_logo/offline-pin/unavailable+pin.png",
      "focused_map_pin_url": "https://d3orevttu06iqr.cloudfront.net/branding_logo/unavailable+select.png"
    },
    {
      "station_id": 1736,
      "station_name": "Statiq Jhilmil Dhabha Station",
      "address": null,
      "latitude": 29.035276,
      "longitude": 77.070831,
      "access_type": 1,
      "is_community_listed": 0,
      "map_pin_url": "https://d3orevttu06iqr.cloudfront.net/charging-pin/normal+pin.png",
      "focused_map_pin_url": "https://d3orevttu06iqr.cloudfront.net/charging-pin/Statiq+selected.png"
    },
    {
      "station_id": 1744,
      "station_name": "Sunfuel - Auramah Valley Shimla",
      "address": null,
      "latitude": 31.1667,
      "longitude": 77.181702,
      "access_type": 1,
      "is_community_listed": 0,
      "map_pin_url": "https://d3orevttu06iqr.cloudfront.net/branding_logo/offline-pin/unavailable+pin.png",
      "focused_map_pin_url": "https://d3orevttu06iqr.cloudfront.net/branding_logo/unavailable+select.png"
    },
    {
      "station_id": 1745,
      "station_name": "Statiq Centrio Mall Station",
      "address": null,
      "latitude": 30.342807,
      "longitude": 78.048295,
      "access_type": 1,
      "is_community_listed": 0,
      "map_pin_url": "https://d3orevttu06iqr.cloudfront.net/charging-pin/normal+pin.png",
      "focused_map_pin_url": "https://d3orevttu06iqr.cloudfront.net/charging-pin/Statiq+selected.png"
    },
    {
      "station_id": 1750,
      "station_name": "Statiq JMD Megapolis Station",
      "address": null,
      "latitude": 28.419491,
      "longitude": 77.038818,
      "access_type": 1,
      "is_community_listed": 0,
      "map_pin_url": "https://d3orevttu06iqr.cloudfront.net/charging-pin/normal+pin.png",
      "focused_map_pin_url": "https://d3orevttu06iqr.cloudfront.net/charging-pin/Statiq+selected.png"
    },
    {
      "station_id": 1751,
      "station_name": "Statiq JMD Galleria Station",
      "address": "G-36, JMD Galleria, Sector 48",
      "latitude": 28.420971,
      "longitude": 77.038467,
      "access_type": 1,
      "is_community_listed": 0,
      "map_pin_url": "https://d3orevttu06iqr.cloudfront.net/charging-pin/normal+pin.png",
      "focused_map_pin_url": "https://d3orevttu06iqr.cloudfront.net/charging-pin/Statiq+selected.png"
    },
    {
      "station_id": 1752,
      "station_name": "Statiq JMD Regent Plaza Station",
      "address": "Jmd Regent Plaza, Mehrauli-Gurgaon Rd, near Guru Dronacharya",
      "latitude": 28.481291,
      "longitude": 77.100441,
      "access_type": 1,
      "is_community_listed": 0,
      "map_pin_url": "https://d3orevttu06iqr.cloudfront.net/charging-pin/normal+pin.png",
      "focused_map_pin_url": "https://d3orevttu06iqr.cloudfront.net/charging-pin/Statiq+selected.png"
    },
    {
      "station_id": 1755,
      "station_name": "Statiq Rang Mahal Station",
      "address": null,
      "latitude": 26.917288,
      "longitude": 70.886337,
      "access_type": 1,
      "is_community_listed": 0,
      "map_pin_url": "https://d3orevttu06iqr.cloudfront.net/charging-pin/Statiq+charging.png",
      "focused_map_pin_url": "https://d3orevttu06iqr.cloudfront.net/charging-pin/Statiq+charging+selected.png"
    },
    {
      "station_id": 1757,
      "station_name": "Statiq Berger Tower Station",
      "address": null,
      "latitude": 28.5746,
      "longitude": 77.313499,
      "access_type": 1,
      "is_community_listed": 0,
      "map_pin_url": "https://d3orevttu06iqr.cloudfront.net/branding_logo/offline-pin/unavailable+pin.png",
      "focused_map_pin_url": "https://statiq-images-prod.s3.ap-south-1.amazonaws.com/branding_logo/offline-pin/unavailable+pin.png"
    },
    {
      "station_id": 1775,
      "station_name": "Adani House Mundra Port Charging Station",
      "address": null,
      "latitude": 22.774733,
      "longitude": 69.683014,
      "access_type": 1,
      "is_community_listed": 0,
      "map_pin_url": "https://statiq-images-prod.s3.ap-south-1.amazonaws.com/branding_logo/offline-pin/unavailable+pin.png",
      "focused_map_pin_url": "https://statiq-images-prod.s3.ap-south-1.amazonaws.com/branding_logo/unavailable+select.png"
    },
    {
      "station_id": 1777,
      "station_name": "Shantivan Colony Mundra Port Charging Station",
      "address": null,
      "latitude": 22.852297,
      "longitude": 69.687119,
      "access_type": 1,
      "is_community_listed": 0,
      "map_pin_url": "https://statiq-images-prod.s3.ap-south-1.amazonaws.com/branding_logo/offline-pin/unavailable+pin.png",
      "focused_map_pin_url": "https://statiq-images-prod.s3.ap-south-1.amazonaws.com/branding_logo/unavailable+select.png"
    },
    {
      "station_id": 1790,
      "station_name": "Statiq Hotel The Suryaa Station",
      "address": null,
      "latitude": 28.561199,
      "longitude": 77.269501,
      "access_type": 1,
      "is_community_listed": 0,
      "map_pin_url": "https://d3orevttu06iqr.cloudfront.net/charging-pin/normal+pin.png",
      "focused_map_pin_url": "https://d3orevttu06iqr.cloudfront.net/charging-pin/Statiq+selected.png"
    },
    {
      "station_id": 1792,
      "station_name": "Sunfuel - Coorg Wilderness Resort & Spa",
      "address": null,
      "latitude": 12.4024,
      "longitude": 75.748398,
      "access_type": 1,
      "is_community_listed": 0,
      "map_pin_url": "https://d3orevttu06iqr.cloudfront.net/branding_logo/offline-pin/unavailable+pin.png",
      "focused_map_pin_url": "https://d3orevttu06iqr.cloudfront.net/branding_logo/unavailable+select.png"
    },
    {
      "station_id": 1793,
      "station_name": "Sunfuel - Radisson Mumbai Andheri MIDC",
      "address": null,
      "latitude": 19.118389,
      "longitude": 72.864754,
      "access_type": 1,
      "is_community_listed": 0,
      "map_pin_url": "https://d3orevttu06iqr.cloudfront.net/branding_logo/offline-pin/unavailable+pin.png",
      "focused_map_pin_url": "https://d3orevttu06iqr.cloudfront.net/branding_logo/unavailable+select.png"
    },
    {
      "station_id": 1794,
      "station_name": "Sunfuel - Radisson Salem",
      "address": null,
      "latitude": 11.6925,
      "longitude": 78.115097,
      "access_type": 1,
      "is_community_listed": 0,
      "map_pin_url": "https://d3orevttu06iqr.cloudfront.net/branding_logo/offline-pin/unavailable+pin.png",
      "focused_map_pin_url": "https://d3orevttu06iqr.cloudfront.net/branding_logo/unavailable+select.png"
    },
    {
      "station_id": 1796,
      "station_name": "Sunfuel - Radisson Blu Plaza Hotel Mysore",
      "address": null,
      "latitude": 12.2989,
      "longitude": 76.665398,
      "access_type": 1,
      "is_community_listed": 0,
      "map_pin_url": "https://d3orevttu06iqr.cloudfront.net/charging-pin/Sunfuel+-+default.png",
      "focused_map_pin_url": "https://d3orevttu06iqr.cloudfront.net/charging-pin/Sunfuel+-+selected.png"
    },
    {
      "station_id": 1800,
      "station_name": "Statiq x TATA.ev SS Plaza Station 1",
      "address": "SS Plaza Parking, Vikas Marg, Block A, Sector 47",
      "latitude": 28.427299,
      "longitude": 77.056702,
      "access_type": 1,
      "is_community_listed": 0,
      "map_pin_url": "https://d3orevttu06iqr.cloudfront.net/charging-pin/Statiq+charging.png",
      "focused_map_pin_url": "https://d3orevttu06iqr.cloudfront.net/charging-pin/Statiq+charging+selected.png"
    },
    {
      "station_id": 1806,
      "station_name": "Sunfuel - Radisson Blu Atria Bengaluru",
      "address": null,
      "latitude": 12.98099,
      "longitude": 77.586151,
      "access_type": 1,
      "is_community_listed": 0,
      "map_pin_url": "https://d3orevttu06iqr.cloudfront.net/branding_logo/offline-pin/unavailable+pin.png",
      "focused_map_pin_url": "https://d3orevttu06iqr.cloudfront.net/branding_logo/unavailable+select.png"
    },
    {
      "station_id": 1809,
      "station_name": "Statiq Nexus Amritsar Station",
      "address": null,
      "latitude": 31.6194,
      "longitude": 74.907204,
      "access_type": 1,
      "is_community_listed": 0,
      "map_pin_url": "https://d3orevttu06iqr.cloudfront.net/charging-pin/normal+pin.png",
      "focused_map_pin_url": "https://d3orevttu06iqr.cloudfront.net/charging-pin/Statiq+selected.png"
    },
    {
      "station_id": 1810,
      "station_name": "Statiq x TATA.ev Elante Mall Chandigarh Station",
      "address": null,
      "latitude": 30.70577,
      "longitude": 76.801399,
      "access_type": 1,
      "is_community_listed": 0,
      "map_pin_url": "https://d3orevttu06iqr.cloudfront.net/charging-pin/Statiq+charging.png",
      "focused_map_pin_url": "https://d3orevttu06iqr.cloudfront.net/charging-pin/Statiq+charging+selected.png"
    },
    {
      "station_id": 1815,
      "station_name": "Statiq Navratan Hotel Station",
      "address": null,
      "latitude": 28.186047,
      "longitude": 76.613907,
      "access_type": 1,
      "is_community_listed": 0,
      "map_pin_url": "https://d3orevttu06iqr.cloudfront.net/charging-pin/normal+pin.png",
      "focused_map_pin_url": "https://d3orevttu06iqr.cloudfront.net/charging-pin/Statiq+selected.png"
    },
    {
      "station_id": 1818,
      "station_name": "Statiq Deepanshu Filling Station",
      "address": null,
      "latitude": 28.984699,
      "longitude": 76.971397,
      "access_type": 1,
      "is_community_listed": 0,
      "map_pin_url": "https://d3orevttu06iqr.cloudfront.net/charging-pin/normal+pin.png",
      "focused_map_pin_url": "https://d3orevttu06iqr.cloudfront.net/charging-pin/Statiq+selected.png"
    },
    {
      "station_id": 1819,
      "station_name": "Statiq Indian Oil Pump Rewari Station",
      "address": null,
      "latitude": 28.203951,
      "longitude": 76.698029,
      "access_type": 1,
      "is_community_listed": 0,
      "map_pin_url": "https://d3orevttu06iqr.cloudfront.net/charging-pin/normal+pin.png",
      "focused_map_pin_url": "https://d3orevttu06iqr.cloudfront.net/charging-pin/Statiq+selected.png"
    },
    {
      "station_id": 1821,
      "station_name": "GMR Green CCS Charging Station",
      "address": null,
      "latitude": 28.548837,
      "longitude": 77.121803,
      "access_type": 1,
      "is_community_listed": 0,
      "map_pin_url": "https://d3orevttu06iqr.cloudfront.net/charging-pin/GMR+default.png",
      "focused_map_pin_url": "https://d3orevttu06iqr.cloudfront.net/charging-pin/GMR+selected.png"
    },
    {
      "station_id": 1823,
      "station_name": "Flavia Electricals Charging Station",
      "address": null,
      "latitude": 12.8656,
      "longitude": 74.844803,
      "access_type": 1,
      "is_community_listed": 0,
      "map_pin_url": "https://d3orevttu06iqr.cloudfront.net/charging-pin/normal+pin.png",
      "focused_map_pin_url": "https://d3orevttu06iqr.cloudfront.net/charging-pin/Statiq+selected.png"
    },
    {
      "station_id": 1826,
      "station_name": "Sunfuel - The Quorum Club Lower Parel Mumbai",
      "address": null,
      "latitude": 19.0082,
      "longitude": 72.832199,
      "access_type": 1,
      "is_community_listed": 0,
      "map_pin_url": "https://d3orevttu06iqr.cloudfront.net/branding_logo/offline-pin/unavailable+pin.png",
      "focused_map_pin_url": "https://d3orevttu06iqr.cloudfront.net/branding_logo/unavailable+select.png"
    },
    {
      "station_id": 1841,
      "station_name": "Sunfuel - Radisson RED Chandigarh Mohali",
      "address": null,
      "latitude": 30.6744,
      "longitude": 76.740501,
      "access_type": 1,
      "is_community_listed": 0,
      "map_pin_url": "https://d3orevttu06iqr.cloudfront.net/branding_logo/offline-pin/unavailable+pin.png",
      "focused_map_pin_url": "https://d3orevttu06iqr.cloudfront.net/branding_logo/unavailable+select.png"
    },
    {
      "station_id": 1842,
      "station_name": "Statiq x TATA.ev Nexus Udaipur Celebration Mall Station",
      "address": null,
      "latitude": 24.61257,
      "longitude": 73.702522,
      "access_type": 1,
      "is_community_listed": 0,
      "map_pin_url": "https://d3orevttu06iqr.cloudfront.net/charging-pin/normal+pin.png",
      "focused_map_pin_url": "https://d3orevttu06iqr.cloudfront.net/charging-pin/Statiq+selected.png"
    },
    {
      "station_id": 1846,
      "station_name": "Sunfuel - WelcomHeritage Parv Vilas Resort & Spa",
      "address": null,
      "latitude": 30.854,
      "longitude": 77.072701,
      "access_type": 1,
      "is_community_listed": 0,
      "map_pin_url": "https://d3orevttu06iqr.cloudfront.net/branding_logo/offline-pin/unavailable+pin.png",
      "focused_map_pin_url": "https://d3orevttu06iqr.cloudfront.net/branding_logo/unavailable+select.png"
    },
    {
      "station_id": 1849,
      "station_name": "Sunfuel - Radisson Blu Resort & Spa - Alibaug",
      "address": null,
      "latitude": 18.6658,
      "longitude": 72.889198,
      "access_type": 1,
      "is_community_listed": 0,
      "map_pin_url": "https://d3orevttu06iqr.cloudfront.net/branding_logo/offline-pin/unavailable+pin.png",
      "focused_map_pin_url": "https://d3orevttu06iqr.cloudfront.net/branding_logo/unavailable+select.png"
    },
    {
      "station_id": 1852,
      "station_name": "Shivamogga CSD 1 Charging Station",
      "address": null,
      "latitude": 13.942,
      "longitude": 75.581902,
      "access_type": 1,
      "is_community_listed": 0,
      "map_pin_url": "https://statiq-images-prod.s3.ap-south-1.amazonaws.com/branding_logo/offline-pin/unavailable+pin.png",
      "focused_map_pin_url": "https://statiq-images-prod.s3.ap-south-1.amazonaws.com/branding_logo/unavailable+select.png"
    },
    {
      "station_id": 1854,
      "station_name": "Statiq Society Food Court Station",
      "address": null,
      "latitude": 32.001038,
      "longitude": 75.613258,
      "access_type": 1,
      "is_community_listed": 0,
      "map_pin_url": "https://d3orevttu06iqr.cloudfront.net/charging-pin/normal+pin.png",
      "focused_map_pin_url": "https://d3orevttu06iqr.cloudfront.net/charging-pin/Statiq+selected.png"
    },
    {
      "station_id": 1855,
      "station_name": "Sunfuel - Radisson Blu Hotel Guwahati",
      "address": null,
      "latitude": 26.1429,
      "longitude": 91.673698,
      "access_type": 1,
      "is_community_listed": 0,
      "map_pin_url": "https://d3orevttu06iqr.cloudfront.net/branding_logo/offline-pin/unavailable+pin.png",
      "focused_map_pin_url": "https://d3orevttu06iqr.cloudfront.net/branding_logo/unavailable+select.png"
    },
    {
      "station_id": 1856,
      "station_name": "GMR Green Worldmark 2 Charging Station",
      "address": null,
      "latitude": 28.551001,
      "longitude": 77.122002,
      "access_type": 1,
      "is_community_listed": 0,
      "map_pin_url": "https://d3orevttu06iqr.cloudfront.net/charging-pin/GMR+default.png",
      "focused_map_pin_url": "https://d3orevttu06iqr.cloudfront.net/charging-pin/GMR+selected.png"
    },
    {
      "station_id": 1857,
      "station_name": "RIICO Udyog Bhawan Charging Station",
      "address": null,
      "latitude": 26.901543,
      "longitude": 75.79911,
      "access_type": 1,
      "is_community_listed": 0,
      "map_pin_url": "https://statiq-images-prod.s3.ap-south-1.amazonaws.com/branding_logo/offline-pin/unavailable+pin.png",
      "focused_map_pin_url": "https://statiq-images-prod.s3.ap-south-1.amazonaws.com/branding_logo/unavailable+select.png"
    },
    {
      "station_id": 1859,
      "station_name": "Statiq Valley View Udaipur Station",
      "address": null,
      "latitude": 24.594,
      "longitude": 73.769508,
      "access_type": 1,
      "is_community_listed": 0,
      "map_pin_url": "https://d3orevttu06iqr.cloudfront.net/charging-pin/normal+pin.png",
      "focused_map_pin_url": "https://d3orevttu06iqr.cloudfront.net/charging-pin/Statiq+selected.png"
    },
    {
      "station_id": 1860,
      "station_name": "Statiq DMRC Hub Arjangarh Metro Station",
      "address": "Gate No. 1, Arjangarh Metro Station",
      "latitude": 28.480803,
      "longitude": 77.125282,
      "access_type": 1,
      "is_community_listed": 0,
      "map_pin_url": "https://d3orevttu06iqr.cloudfront.net/charging-pin/Statiq+charging.png",
      "focused_map_pin_url": "https://d3orevttu06iqr.cloudfront.net/charging-pin/Statiq+charging+selected.png"
    },
    {
      "station_id": 1864,
      "station_name": "Durgam Cheruvu Charging Station",
      "address": null,
      "latitude": 17.436876,
      "longitude": 78.388519,
      "access_type": 1,
      "is_community_listed": 0,
      "map_pin_url": "https://d3orevttu06iqr.cloudfront.net/charging-pin/normal+pin.png",
      "focused_map_pin_url": "https://d3orevttu06iqr.cloudfront.net/charging-pin/Statiq+selected.png"
    },
    {
      "station_id": 1870,
      "station_name": "Statiq Jwalamala Station",
      "address": null,
      "latitude": 12.962459,
      "longitude": 76.748978,
      "access_type": 1,
      "is_community_listed": 0,
      "map_pin_url": "https://d3orevttu06iqr.cloudfront.net/charging-pin/normal+pin.png",
      "focused_map_pin_url": "https://d3orevttu06iqr.cloudfront.net/charging-pin/Statiq+selected.png"
    },
    {
      "station_id": 1871,
      "station_name": "Sunfuel - Radisson Hotel Kandla",
      "address": null,
      "latitude": 23.0863,
      "longitude": 70.106201,
      "access_type": 1,
      "is_community_listed": 0,
      "map_pin_url": "https://d3orevttu06iqr.cloudfront.net/branding_logo/offline-pin/unavailable+pin.png",
      "focused_map_pin_url": "https://d3orevttu06iqr.cloudfront.net/branding_logo/unavailable+select.png"
    },
    {
      "station_id": 1875,
      "station_name": "Sunfuel - Park Inn Amritsar",
      "address": null,
      "latitude": 31.7075,
      "longitude": 74.819099,
      "access_type": 1,
      "is_community_listed": 0,
      "map_pin_url": "https://d3orevttu06iqr.cloudfront.net/branding_logo/offline-pin/unavailable+pin.png",
      "focused_map_pin_url": "https://d3orevttu06iqr.cloudfront.net/branding_logo/unavailable+select.png"
    },
    {
      "station_id": 1877,
      "station_name": "Statiq Ramada Bareilly Station",
      "address": null,
      "latitude": 28.347281,
      "longitude": 79.428596,
      "access_type": 1,
      "is_community_listed": 0,
      "map_pin_url": "https://d3orevttu06iqr.cloudfront.net/charging-pin/normal+pin.png",
      "focused_map_pin_url": "https://d3orevttu06iqr.cloudfront.net/charging-pin/Statiq+selected.png"
    },
    {
      "station_id": 1879,
      "station_name": "Statiq DIT University Station",
      "address": null,
      "latitude": 30.400797,
      "longitude": 78.078491,
      "access_type": 1,
      "is_community_listed": 0,
      "map_pin_url": "https://d3orevttu06iqr.cloudfront.net/branding_logo/offline-pin/unavailable+pin.png",
      "focused_map_pin_url": "https://statiq-images-prod.s3.ap-south-1.amazonaws.com/branding_logo/offline-pin/unavailable+pin.png"
    },
    {
      "station_id": 1881,
      "station_name": "Statiq x TATA.ev Old Rao Kapriwas Station",
      "address": null,
      "latitude": 28.244396,
      "longitude": 76.81385,
      "access_type": 1,
      "is_community_listed": 0,
      "map_pin_url": "https://d3orevttu06iqr.cloudfront.net/charging-pin/Statiq+charging.png",
      "focused_map_pin_url": "https://d3orevttu06iqr.cloudfront.net/charging-pin/Statiq+charging+selected.png"
    },
    {
      "station_id": 1882,
      "station_name": "Statiq Fun Republic Mall Station",
      "address": null,
      "latitude": 26.85801,
      "longitude": 80.975879,
      "access_type": 1,
      "is_community_listed": 0,
      "map_pin_url": "https://d3orevttu06iqr.cloudfront.net/charging-pin/normal+pin.png",
      "focused_map_pin_url": "https://d3orevttu06iqr.cloudfront.net/charging-pin/Statiq+selected.png"
    },
    {
      "station_id": 1884,
      "station_name": "Statiq DMRC Hub Uttam Nagar East Metro Station",
      "address": "Uttam Nagar East Metro Station",
      "latitude": 28.626822,
      "longitude": 77.065704,
      "access_type": 1,
      "is_community_listed": 0,
      "map_pin_url": "https://d3orevttu06iqr.cloudfront.net/charging-pin/normal+pin.png",
      "focused_map_pin_url": "https://d3orevttu06iqr.cloudfront.net/charging-pin/Statiq+selected.png"
    },
    {
      "station_id": 1885,
      "station_name": "Statiq DMRC Hub Qutub Minar Metro Station",
      "address": "Qutab Minar Metro Station, Mittal Garden, Sainik Farm",
      "latitude": 28.513317,
      "longitude": 77.186093,
      "access_type": 1,
      "is_community_listed": 0,
      "map_pin_url": "https://d3orevttu06iqr.cloudfront.net/charging-pin/Statiq+charging.png",
      "focused_map_pin_url": "https://d3orevttu06iqr.cloudfront.net/charging-pin/Statiq+charging+selected.png"
    },
    {
      "station_id": 1886,
      "station_name": "Statiq BSES Hub Rajouri Garden",
      "address": null,
      "latitude": 28.638378,
      "longitude": 77.121048,
      "access_type": 1,
      "is_community_listed": 0,
      "map_pin_url": "https://d3orevttu06iqr.cloudfront.net/charging-pin/normal+pin.png",
      "focused_map_pin_url": "https://d3orevttu06iqr.cloudfront.net/charging-pin/Statiq+selected.png"
    },
    {
      "station_id": 1890,
      "station_name": "Sunfuel - DLF Emporio",
      "address": null,
      "latitude": 28.543743,
      "longitude": 77.156593,
      "access_type": 1,
      "is_community_listed": 0,
      "map_pin_url": "https://d3orevttu06iqr.cloudfront.net/branding_logo/offline-pin/unavailable+pin.png",
      "focused_map_pin_url": "https://d3orevttu06iqr.cloudfront.net/branding_logo/unavailable+select.png"
    },
    {
      "station_id": 1891,
      "station_name": "EESL Statiq DTC Nehru Place Charging Station",
      "address": null,
      "latitude": 28.548472,
      "longitude": 77.255861,
      "access_type": 1,
      "is_community_listed": 0,
      "map_pin_url": "https://d3orevttu06iqr.cloudfront.net/branding_logo/offline-pin/unavailable+pin.png",
      "focused_map_pin_url": "https://statiq-images-prod.s3.ap-south-1.amazonaws.com/branding_logo/offline-pin/unavailable+pin.png"
    },
    {
      "station_id": 1892,
      "station_name": "Statiq DMRC Hub Nangloi Railway Station",
      "address": "Rohtak Road, Tyagi Colony Nangloi Extension, Nangloi",
      "latitude": 28.682335,
      "longitude": 77.056053,
      "access_type": 1,
      "is_community_listed": 0,
      "map_pin_url": "https://d3orevttu06iqr.cloudfront.net/branding_logo/offline-pin/unavailable+pin.png",
      "focused_map_pin_url": "https://statiq-images-prod.s3.ap-south-1.amazonaws.com/branding_logo/offline-pin/unavailable+pin.png"
    },
    {
      "station_id": 1898,
      "station_name": "ADS Automobile EV Charging Station",
      "address": null,
      "latitude": 21.2181,
      "longitude": 81.449303,
      "access_type": 1,
      "is_community_listed": 0,
      "map_pin_url": "https://d3orevttu06iqr.cloudfront.net/branding_logo/offline-pin/unavailable+pin.png",
      "focused_map_pin_url": "https://statiq-images-prod.s3.ap-south-1.amazonaws.com/branding_logo/offline-pin/unavailable+pin.png"
    },
    {
      "station_id": 1909,
      "station_name": "Conrad Bengaluru",
      "address": null,
      "latitude": 12.976111,
      "longitude": 77.620331,
      "access_type": 1,
      "is_community_listed": 0,
      "map_pin_url": "https://d3orevttu06iqr.cloudfront.net/charging-pin/Sunfuel+-+default.png",
      "focused_map_pin_url": "https://d3orevttu06iqr.cloudfront.net/charging-pin/Sunfuel+-+selected.png"
    },
    {
      "station_id": 1913,
      "station_name": "ANG Farms Charging Station",
      "address": "Old Mumbai - Pune Hwy, Vinegaon",
      "latitude": 18.880611,
      "longitude": 73.268997,
      "access_type": 1,
      "is_community_listed": 0,
      "map_pin_url": "https://d3orevttu06iqr.cloudfront.net/branding_logo/offline-pin/unavailable+pin.png",
      "focused_map_pin_url": "https://statiq-images-prod.s3.ap-south-1.amazonaws.com/branding_logo/offline-pin/unavailable+pin.png"
    },
    {
      "station_id": 1918,
      "station_name": "Statiq X TATA.ev Rao Tej Singh Market Dharuhera Station",
      "address": null,
      "latitude": 28.205074,
      "longitude": 76.78492,
      "access_type": 1,
      "is_community_listed": 0,
      "map_pin_url": "https://d3orevttu06iqr.cloudfront.net/charging-pin/normal+pin.png",
      "focused_map_pin_url": "https://d3orevttu06iqr.cloudfront.net/charging-pin/Statiq+selected.png"
    },
    {
      "station_id": 1919,
      "station_name": "Sunfuel - Radisson Blu Resort Karjat",
      "address": null,
      "latitude": 18.874781,
      "longitude": 73.362823,
      "access_type": 1,
      "is_community_listed": 0,
      "map_pin_url": "https://d3orevttu06iqr.cloudfront.net/branding_logo/offline-pin/unavailable+pin.png",
      "focused_map_pin_url": "https://d3orevttu06iqr.cloudfront.net/branding_logo/unavailable+select.png"
    },
    {
      "station_id": 1921,
      "station_name": "Statiq BSES Hub Janakpuri District Centre",
      "address": null,
      "latitude": 28.629295,
      "longitude": 77.082916,
      "access_type": 1,
      "is_community_listed": 0,
      "map_pin_url": "https://d3orevttu06iqr.cloudfront.net/charging-pin/normal+pin.png",
      "focused_map_pin_url": "https://d3orevttu06iqr.cloudfront.net/charging-pin/Statiq+selected.png"
    },
    {
      "station_id": 1933,
      "station_name": "Statiq DMRC Hub Dwarka Sector 10 Metro Station",
      "address": null,
      "latitude": 28.581657,
      "longitude": 77.056221,
      "access_type": 1,
      "is_community_listed": 0,
      "map_pin_url": "https://d3orevttu06iqr.cloudfront.net/branding_logo/offline-pin/unavailable+pin.png",
      "focused_map_pin_url": "https://statiq-images-prod.s3.ap-south-1.amazonaws.com/branding_logo/offline-pin/unavailable+pin.png"
    },
    {
      "station_id": 1934,
      "station_name": "Sunfuel - Radisson Blu Resort Kumbhalgarh",
      "address": null,
      "latitude": 25.125389,
      "longitude": 73.585258,
      "access_type": 1,
      "is_community_listed": 0,
      "map_pin_url": "https://d3orevttu06iqr.cloudfront.net/branding_logo/offline-pin/unavailable+pin.png",
      "focused_map_pin_url": "https://d3orevttu06iqr.cloudfront.net/branding_logo/unavailable+select.png"
    },
    {
      "station_id": 1935,
      "station_name": "Sunfuel - Radisson Gwalior",
      "address": null,
      "latitude": 26.20603,
      "longitude": 78.191849,
      "access_type": 1,
      "is_community_listed": 0,
      "map_pin_url": "https://d3orevttu06iqr.cloudfront.net/branding_logo/offline-pin/unavailable+pin.png",
      "focused_map_pin_url": "https://d3orevttu06iqr.cloudfront.net/branding_logo/unavailable+select.png"
    },
    {
      "station_id": 1937,
      "station_name": "Statiq x TATA.ev Nexus Koramangala Station",
      "address": null,
      "latitude": 12.934487,
      "longitude": 77.611359,
      "access_type": 1,
      "is_community_listed": 0,
      "map_pin_url": "https://d3orevttu06iqr.cloudfront.net/charging-pin/normal+pin.png",
      "focused_map_pin_url": "https://d3orevttu06iqr.cloudfront.net/charging-pin/Statiq+selected.png"
    },
    {
      "station_id": 1939,
      "station_name": "Sunfuel - Radisson Hotel Nathdwara",
      "address": null,
      "latitude": 24.917299,
      "longitude": 73.824577,
      "access_type": 1,
      "is_community_listed": 0,
      "map_pin_url": "https://d3orevttu06iqr.cloudfront.net/branding_logo/offline-pin/unavailable+pin.png",
      "focused_map_pin_url": "https://d3orevttu06iqr.cloudfront.net/branding_logo/unavailable+select.png"
    },
    {
      "station_id": 1940,
      "station_name": "Sunfuel - Radisson Blu Bengaluru Outer Ring Road",
      "address": null,
      "latitude": 12.95046,
      "longitude": 77.698982,
      "access_type": 1,
      "is_community_listed": 0,
      "map_pin_url": "https://d3orevttu06iqr.cloudfront.net/branding_logo/offline-pin/unavailable+pin.png",
      "focused_map_pin_url": "https://d3orevttu06iqr.cloudfront.net/branding_logo/unavailable+select.png"
    },
    {
      "station_id": 1941,
      "station_name": "Sunfuel - Radisson Gurugram Udyog Vihar",
      "address": null,
      "latitude": 28.509979,
      "longitude": 77.092102,
      "access_type": 1,
      "is_community_listed": 0,
      "map_pin_url": "https://d3orevttu06iqr.cloudfront.net/branding_logo/offline-pin/unavailable+pin.png",
      "focused_map_pin_url": "https://d3orevttu06iqr.cloudfront.net/branding_logo/unavailable+select.png"
    },
    {
      "station_id": 1942,
      "station_name": "Sunfuel - Country Inn & Suites, Gurgaon Sector 12",
      "address": null,
      "latitude": 28.46978,
      "longitude": 77.038254,
      "access_type": 1,
      "is_community_listed": 0,
      "map_pin_url": "https://d3orevttu06iqr.cloudfront.net/charging-pin/Sunfuel+-+default.png",
      "focused_map_pin_url": "https://d3orevttu06iqr.cloudfront.net/charging-pin/Sunfuel+-+selected.png"
    },
    {
      "station_id": 1944,
      "station_name": "Sunfuel - Radisson Blu Hotel Greater Noida",
      "address": null,
      "latitude": 28.450171,
      "longitude": 77.527924,
      "access_type": 1,
      "is_community_listed": 0,
      "map_pin_url": "https://d3orevttu06iqr.cloudfront.net/branding_logo/offline-pin/unavailable+pin.png",
      "focused_map_pin_url": "https://d3orevttu06iqr.cloudfront.net/branding_logo/unavailable+select.png"
    },
    {
      "station_id": 1950,
      "station_name": "Sunfuel - Radisson Blu Hotel Indore",
      "address": null,
      "latitude": 22.75028,
      "longitude": 75.902748,
      "access_type": 1,
      "is_community_listed": 0,
      "map_pin_url": "https://d3orevttu06iqr.cloudfront.net/branding_logo/offline-pin/unavailable+pin.png",
      "focused_map_pin_url": "https://d3orevttu06iqr.cloudfront.net/branding_logo/unavailable+select.png"
    },
    {
      "station_id": 1953,
      "station_name": "Sunfuel - Radisson Noida",
      "address": null,
      "latitude": 28.6113,
      "longitude": 77.344269,
      "access_type": 1,
      "is_community_listed": 0,
      "map_pin_url": "https://d3orevttu06iqr.cloudfront.net/branding_logo/offline-pin/unavailable+pin.png",
      "focused_map_pin_url": "https://d3orevttu06iqr.cloudfront.net/branding_logo/unavailable+select.png"
    },
    {
      "station_id": 1956,
      "station_name": "Sunfuel - Radisson Blu Hotel Ranchi",
      "address": null,
      "latitude": 23.351521,
      "longitude": 85.324493,
      "access_type": 1,
      "is_community_listed": 0,
      "map_pin_url": "https://d3orevttu06iqr.cloudfront.net/charging-pin/Sunfuel+-+default.png",
      "focused_map_pin_url": "https://d3orevttu06iqr.cloudfront.net/charging-pin/Sunfuel+-+selected.png"
    },
    {
      "station_id": 1969,
      "station_name": "RTA Nagole track Charging Station",
      "address": null,
      "latitude": 17.369608,
      "longitude": 78.557564,
      "access_type": 1,
      "is_community_listed": 0,
      "map_pin_url": "https://d3orevttu06iqr.cloudfront.net/charging-pin/normal+pin.png",
      "focused_map_pin_url": "https://d3orevttu06iqr.cloudfront.net/charging-pin/Statiq+selected.png"
    },
    {
      "station_id": 1970,
      "station_name": "Saroornagar Stadium Charging Station",
      "address": null,
      "latitude": 17.354811,
      "longitude": 78.545502,
      "access_type": 1,
      "is_community_listed": 0,
      "map_pin_url": "https://d3orevttu06iqr.cloudfront.net/charging-pin/normal+pin.png",
      "focused_map_pin_url": "https://d3orevttu06iqr.cloudfront.net/charging-pin/Statiq+selected.png"
    },
    {
      "station_id": 1973,
      "station_name": "Statiq KFC Doraha Station",
      "address": null,
      "latitude": 30.786762,
      "longitude": 76.046883,
      "access_type": 1,
      "is_community_listed": 0,
      "map_pin_url": "https://d3orevttu06iqr.cloudfront.net/branding_logo/offline-pin/unavailable+pin.png",
      "focused_map_pin_url": "https://statiq-images-prod.s3.ap-south-1.amazonaws.com/branding_logo/offline-pin/unavailable+pin.png"
    },
    {
      "station_id": 1978,
      "station_name": "Manish Yadav Petro Point AC Charging Station",
      "address": null,
      "latitude": 28.226183,
      "longitude": 76.136208,
      "access_type": 1,
      "is_community_listed": 0,
      "map_pin_url": "https://d3orevttu06iqr.cloudfront.net/branding_logo/offline-pin/unavailable+pin.png",
      "focused_map_pin_url": "https://statiq-images-prod.s3.ap-south-1.amazonaws.com/branding_logo/offline-pin/unavailable+pin.png"
    },
    {
      "station_id": 1981,
      "station_name": "Sunfuel - Radisson Kufri",
      "address": null,
      "latitude": 31.101561,
      "longitude": 77.265991,
      "access_type": 1,
      "is_community_listed": 0,
      "map_pin_url": "https://d3orevttu06iqr.cloudfront.net/branding_logo/offline-pin/unavailable+pin.png",
      "focused_map_pin_url": "https://d3orevttu06iqr.cloudfront.net/branding_logo/unavailable+select.png"
    },
    {
      "station_id": 1992,
      "station_name": "Torrent Power - Ring Road EV Charging Station",
      "address": null,
      "latitude": 21.186434,
      "longitude": 72.838844,
      "access_type": 1,
      "is_community_listed": 0,
      "map_pin_url": "https://d3orevttu06iqr.cloudfront.net/charging-pin/torrent_map_pin.png",
      "focused_map_pin_url": "https://d3orevttu06iqr.cloudfront.net/charging-pin/torrent_focused.png"
    },
    {
      "station_id": 1993,
      "station_name": "Torrent Power - Dabholi EV Charging Station",
      "address": null,
      "latitude": 21.233553,
      "longitude": 72.80323,
      "access_type": 1,
      "is_community_listed": 0,
      "map_pin_url": "https://d3orevttu06iqr.cloudfront.net/charging-pin/torrent_map_pin.png",
      "focused_map_pin_url": "https://d3orevttu06iqr.cloudfront.net/charging-pin/torrent_focused.png"
    },
    {
      "station_id": 1994,
      "station_name": "Torrent Power - Prahladnagar EV Charging Station",
      "address": null,
      "latitude": 23.013746,
      "longitude": 72.506477,
      "access_type": 1,
      "is_community_listed": 0,
      "map_pin_url": "https://d3orevttu06iqr.cloudfront.net/charging-pin/torrent_map_pin.png",
      "focused_map_pin_url": "https://d3orevttu06iqr.cloudfront.net/charging-pin/torrent_focused.png"
    },
    {
      "station_id": 1995,
      "station_name": "Torrent Power - Naranpura EV Charging Station",
      "address": null,
      "latitude": 23.052956,
      "longitude": 72.548477,
      "access_type": 1,
      "is_community_listed": 0,
      "map_pin_url": "https://d3orevttu06iqr.cloudfront.net/charging-pin/torrent_map_pin.png",
      "focused_map_pin_url": "https://d3orevttu06iqr.cloudfront.net/charging-pin/torrent_focused.png"
    },
    {
      "station_id": 1996,
      "station_name": "Torrent Power - Drive inn EV Charging Station",
      "address": null,
      "latitude": 23.044277,
      "longitude": 72.546799,
      "access_type": 1,
      "is_community_listed": 0,
      "map_pin_url": "https://d3orevttu06iqr.cloudfront.net/charging-pin/torrent_map_pin.png",
      "focused_map_pin_url": "https://d3orevttu06iqr.cloudfront.net/charging-pin/torrent_focused.png"
    },
    {
      "station_id": 1997,
      "station_name": "Torrent Power - Raipur Darwaja EV Charging Station",
      "address": null,
      "latitude": 23.017349,
      "longitude": 72.596519,
      "access_type": 1,
      "is_community_listed": 0,
      "map_pin_url": "https://d3orevttu06iqr.cloudfront.net/charging-pin/torrent_map_pin.png",
      "focused_map_pin_url": "https://d3orevttu06iqr.cloudfront.net/charging-pin/torrent_focused.png"
    },
    {
      "station_id": 1998,
      "station_name": "Amberpet Police line Charging Station",
      "address": null,
      "latitude": 17.387215,
      "longitude": 78.516632,
      "access_type": 1,
      "is_community_listed": 0,
      "map_pin_url": "https://d3orevttu06iqr.cloudfront.net/charging-pin/Statiq+charging.png",
      "focused_map_pin_url": "https://d3orevttu06iqr.cloudfront.net/charging-pin/Statiq+charging+selected.png"
    },
    {
      "station_id": 1999,
      "station_name": "E seva center NGO colony Charging Station",
      "address": null,
      "latitude": 17.328178,
      "longitude": 78.568779,
      "access_type": 1,
      "is_community_listed": 0,
      "map_pin_url": "https://d3orevttu06iqr.cloudfront.net/branding_logo/offline-pin/unavailable+pin.png",
      "focused_map_pin_url": "https://statiq-images-prod.s3.ap-south-1.amazonaws.com/branding_logo/offline-pin/unavailable+pin.png"
    },
    {
      "station_id": 2000,
      "station_name": "Old Passport 0ffice Charging Station",
      "address": null,
      "latitude": 17.439096,
      "longitude": 78.498848,
      "access_type": 1,
      "is_community_listed": 0,
      "map_pin_url": "https://d3orevttu06iqr.cloudfront.net/charging-pin/normal+pin.png",
      "focused_map_pin_url": "https://d3orevttu06iqr.cloudfront.net/charging-pin/Statiq+selected.png"
    },
    {
      "station_id": 2001,
      "station_name": "HMDA Truck Park Charging Station",
      "address": null,
      "latitude": 17.302135,
      "longitude": 78.739655,
      "access_type": 1,
      "is_community_listed": 0,
      "map_pin_url": "https://d3orevttu06iqr.cloudfront.net/branding_logo/offline-pin/unavailable+pin.png",
      "focused_map_pin_url": "https://statiq-images-prod.s3.ap-south-1.amazonaws.com/branding_logo/offline-pin/unavailable+pin.png"
    },
    {
      "station_id": 2002,
      "station_name": "BHEL MIG Colony Charging Station",
      "address": null,
      "latitude": 17.48694,
      "longitude": 78.313484,
      "access_type": 1,
      "is_community_listed": 0,
      "map_pin_url": "https://d3orevttu06iqr.cloudfront.net/charging-pin/normal+pin.png",
      "focused_map_pin_url": "https://d3orevttu06iqr.cloudfront.net/charging-pin/Statiq+selected.png"
    },
    {
      "station_id": 2003,
      "station_name": "Krishna Kanth Park Charging Station",
      "address": null,
      "latitude": 17.44124,
      "longitude": 78.431824,
      "access_type": 1,
      "is_community_listed": 0,
      "map_pin_url": "https://d3orevttu06iqr.cloudfront.net/charging-pin/normal+pin.png",
      "focused_map_pin_url": "https://d3orevttu06iqr.cloudfront.net/charging-pin/Statiq+selected.png"
    },
    {
      "station_id": 2006,
      "station_name": "Statiq Chaar Bhai Station",
      "address": null,
      "latitude": 28.41897,
      "longitude": 77.157295,
      "access_type": 1,
      "is_community_listed": 0,
      "map_pin_url": "https://d3orevttu06iqr.cloudfront.net/branding_logo/offline-pin/unavailable+pin.png",
      "focused_map_pin_url": "https://statiq-images-prod.s3.ap-south-1.amazonaws.com/branding_logo/offline-pin/unavailable+pin.png"
    },
    {
      "station_id": 2008,
      "station_name": "Firstup Centre EV Charging Station",
      "address": null,
      "latitude": 21.24164,
      "longitude": 81.6474,
      "access_type": 1,
      "is_community_listed": 0,
      "map_pin_url": "https://d3orevttu06iqr.cloudfront.net/branding_logo/offline-pin/unavailable+pin.png",
      "focused_map_pin_url": "https://statiq-images-prod.s3.ap-south-1.amazonaws.com/branding_logo/offline-pin/unavailable+pin.png"
    },
    {
      "station_id": 2013,
      "station_name": "Statiq AICK Karnal Station",
      "address": null,
      "latitude": 29.723366,
      "longitude": 76.997612,
      "access_type": 1,
      "is_community_listed": 0,
      "map_pin_url": "https://d3orevttu06iqr.cloudfront.net/branding_logo/offline-pin/unavailable+pin.png",
      "focused_map_pin_url": "https://statiq-images-prod.s3.ap-south-1.amazonaws.com/branding_logo/offline-pin/unavailable+pin.png"
    },
    {
      "station_id": 2021,
      "station_name": "Statiq SSR Corporate Station",
      "address": null,
      "latitude": 28.458841,
      "longitude": 77.306145,
      "access_type": 1,
      "is_community_listed": 0,
      "map_pin_url": "https://d3orevttu06iqr.cloudfront.net/charging-pin/normal+pin.png",
      "focused_map_pin_url": "https://d3orevttu06iqr.cloudfront.net/charging-pin/Statiq+selected.png"
    },
    {
      "station_id": 2022,
      "station_name": "Statiq HP Pump Leopard Trail Station",
      "address": null,
      "latitude": 28.37933,
      "longitude": 76.993668,
      "access_type": 1,
      "is_community_listed": 0,
      "map_pin_url": "https://d3orevttu06iqr.cloudfront.net/charging-pin/normal+pin.png",
      "focused_map_pin_url": "https://d3orevttu06iqr.cloudfront.net/charging-pin/Statiq+selected.png"
    },
    {
      "station_id": 2026,
      "station_name": "Statiq Jubilant  Motors Station",
      "address": null,
      "latitude": 12.970239,
      "longitude": 80.218391,
      "access_type": 1,
      "is_community_listed": 0,
      "map_pin_url": "https://d3orevttu06iqr.cloudfront.net/charging-pin/normal+pin.png",
      "focused_map_pin_url": "https://d3orevttu06iqr.cloudfront.net/charging-pin/Statiq+selected.png"
    },
    {
      "station_id": 2028,
      "station_name": "Statiq Gurukrupa Square Station",
      "address": null,
      "latitude": 12.875357,
      "longitude": 77.648338,
      "access_type": 1,
      "is_community_listed": 0,
      "map_pin_url": "https://d3orevttu06iqr.cloudfront.net/charging-pin/normal+pin.png",
      "focused_map_pin_url": "https://d3orevttu06iqr.cloudfront.net/charging-pin/Statiq+selected.png"
    },
    {
      "station_id": 2029,
      "station_name": "Statiq SS Plaza Station 3",
      "address": null,
      "latitude": 28.426907,
      "longitude": 77.056892,
      "access_type": 1,
      "is_community_listed": 0,
      "map_pin_url": "https://d3orevttu06iqr.cloudfront.net/branding_logo/offline-pin/unavailable+pin.png",
      "focused_map_pin_url": "https://statiq-images-prod.s3.ap-south-1.amazonaws.com/branding_logo/offline-pin/unavailable+pin.png"
    },
    {
      "station_id": 2030,
      "station_name": "Statiq MM Motors Station",
      "address": null,
      "latitude": 13.0388,
      "longitude": 80.133102,
      "access_type": 1,
      "is_community_listed": 0,
      "map_pin_url": "https://d3orevttu06iqr.cloudfront.net/branding_logo/offline-pin/unavailable+pin.png",
      "focused_map_pin_url": "https://statiq-images-prod.s3.ap-south-1.amazonaws.com/branding_logo/offline-pin/unavailable+pin.png"
    },
    {
      "station_id": 2031,
      "station_name": "Hyundai Clean Quest Services Charging Station",
      "address": null,
      "latitude": 12.5734,
      "longitude": 78.169403,
      "access_type": 1,
      "is_community_listed": 0,
      "map_pin_url": "https://d3orevttu06iqr.cloudfront.net/network-branding/Hyundai/hyundai-online-not-selected.png",
      "focused_map_pin_url": "https://d3orevttu06iqr.cloudfront.net/network-branding/Hyundai/hyundai-online-selected.png"
    },
    {
      "station_id": 2032,
      "station_name": "Statiq x TATA.ev Hotel VV Srini Station",
      "address": null,
      "latitude": 13.74971,
      "longitude": 77.788086,
      "access_type": 1,
      "is_community_listed": 0,
      "map_pin_url": "https://d3orevttu06iqr.cloudfront.net/charging-pin/normal+pin.png",
      "focused_map_pin_url": "https://d3orevttu06iqr.cloudfront.net/charging-pin/Statiq+selected.png"
    },
    {
      "station_id": 2042,
      "station_name": "Chandanagar GHMC Office Charging Station",
      "address": null,
      "latitude": 17.494684,
      "longitude": 78.325989,
      "access_type": 1,
      "is_community_listed": 0,
      "map_pin_url": "https://d3orevttu06iqr.cloudfront.net/charging-pin/normal+pin.png",
      "focused_map_pin_url": "https://d3orevttu06iqr.cloudfront.net/charging-pin/Statiq+selected.png"
    },
    {
      "station_id": 2046,
      "station_name": "Aryan Hotel Charging Station",
      "address": null,
      "latitude": 27.359102,
      "longitude": 75.589821,
      "access_type": 1,
      "is_community_listed": 0,
      "map_pin_url": "https://statiq-images-prod.s3.ap-south-1.amazonaws.com/branding_logo/offline-pin/unavailable+pin.png",
      "focused_map_pin_url": "https://statiq-images-prod.s3.ap-south-1.amazonaws.com/branding_logo/unavailable+select.png"
    },
    {
      "station_id": 2047,
      "station_name": "Statiq SS Plaza Station 2",
      "address": null,
      "latitude": 28.426933,
      "longitude": 77.0569,
      "access_type": 1,
      "is_community_listed": 0,
      "map_pin_url": "https://d3orevttu06iqr.cloudfront.net/charging-pin/normal+pin.png",
      "focused_map_pin_url": "https://d3orevttu06iqr.cloudfront.net/charging-pin/Statiq+selected.png"
    },
    {
      "station_id": 2049,
      "station_name": "Statiq Stellar Okas Station",
      "address": null,
      "latitude": 28.503206,
      "longitude": 77.414421,
      "access_type": 1,
      "is_community_listed": 0,
      "map_pin_url": "https://d3orevttu06iqr.cloudfront.net/charging-pin/normal+pin.png",
      "focused_map_pin_url": "https://d3orevttu06iqr.cloudfront.net/charging-pin/Statiq+selected.png"
    },
    {
      "station_id": 2050,
      "station_name": "Statiq Hotel Sunbird Station",
      "address": null,
      "latitude": 27.205263,
      "longitude": 77.510269,
      "access_type": 1,
      "is_community_listed": 0,
      "map_pin_url": "https://d3orevttu06iqr.cloudfront.net/branding_logo/offline-pin/unavailable+pin.png",
      "focused_map_pin_url": "https://statiq-images-prod.s3.ap-south-1.amazonaws.com/branding_logo/offline-pin/unavailable+pin.png"
    },
    {
      "station_id": 2054,
      "station_name": "Statiq Nexus Esplanade Station",
      "address": null,
      "latitude": 20.2915,
      "longitude": 85.856018,
      "access_type": 1,
      "is_community_listed": 0,
      "map_pin_url": "https://d3orevttu06iqr.cloudfront.net/charging-pin/normal+pin.png",
      "focused_map_pin_url": "https://d3orevttu06iqr.cloudfront.net/charging-pin/Statiq+selected.png"
    },
    {
      "station_id": 2056,
      "station_name": "Statiq Marwar Motors Station",
      "address": null,
      "latitude": 26.717354,
      "longitude": 77.896004,
      "access_type": 1,
      "is_community_listed": 0,
      "map_pin_url": "https://d3orevttu06iqr.cloudfront.net/charging-pin/normal+pin.png",
      "focused_map_pin_url": "https://d3orevttu06iqr.cloudfront.net/charging-pin/Statiq+selected.png"
    },
    {
      "station_id": 2058,
      "station_name": "Statiq Gautam Garden Station",
      "address": null,
      "latitude": 29.2652,
      "longitude": 77.005402,
      "access_type": 1,
      "is_community_listed": 0,
      "map_pin_url": "https://d3orevttu06iqr.cloudfront.net/charging-pin/normal+pin.png",
      "focused_map_pin_url": "https://d3orevttu06iqr.cloudfront.net/charging-pin/Statiq+selected.png"
    },
    {
      "station_id": 2067,
      "station_name": "Hyundai Bikanervala Sec-57 Gurgaon Station",
      "address": null,
      "latitude": 28.416418,
      "longitude": 77.084969,
      "access_type": 1,
      "is_community_listed": 0,
      "map_pin_url": "https://d3orevttu06iqr.cloudfront.net/network-branding/Hyundai/hyundai-online-not-selected.png",
      "focused_map_pin_url": "https://d3orevttu06iqr.cloudfront.net/network-branding/Hyundai/hyundai-online-selected.png"
    },
    {
      "station_id": 2069,
      "station_name": "Statiq Hotel The Vaishvik Station",
      "address": null,
      "latitude": 32.993755,
      "longitude": 74.934509,
      "access_type": 1,
      "is_community_listed": 0,
      "map_pin_url": "https://d3orevttu06iqr.cloudfront.net/charging-pin/normal+pin.png",
      "focused_map_pin_url": "https://d3orevttu06iqr.cloudfront.net/charging-pin/Statiq+selected.png"
    },
    {
      "station_id": 2082,
      "station_name": "Carber Charging Station- Lotus Panache",
      "address": null,
      "latitude": 28.531401,
      "longitude": 77.382797,
      "access_type": 1,
      "is_community_listed": 0,
      "map_pin_url": "https://statiq-images-prod.s3.ap-south-1.amazonaws.com/branding_logo/offline-pin/unavailable+pin.png",
      "focused_map_pin_url": "https://statiq-images-prod.s3.ap-south-1.amazonaws.com/branding_logo/unavailable+select.png"
    },
    {
      "station_id": 2083,
      "station_name": "Statiq Padam High Street Station",
      "address": null,
      "latitude": 27.148661,
      "longitude": 78.053047,
      "access_type": 1,
      "is_community_listed": 0,
      "map_pin_url": "https://d3orevttu06iqr.cloudfront.net/charging-pin/normal+pin.png",
      "focused_map_pin_url": "https://d3orevttu06iqr.cloudfront.net/charging-pin/Statiq+selected.png"
    },
    {
      "station_id": 2084,
      "station_name": "Statiq Trifecta Adatto Station",
      "address": null,
      "latitude": 12.994325,
      "longitude": 77.699249,
      "access_type": 1,
      "is_community_listed": 0,
      "map_pin_url": "https://d3orevttu06iqr.cloudfront.net/charging-pin/normal+pin.png",
      "focused_map_pin_url": "https://d3orevttu06iqr.cloudfront.net/charging-pin/Statiq+selected.png"
    },