station_id,station_name,address,latitude,longitude,access_type,is_community_listed,map_pin_url,focused_map_pin_url
1155,Sunfuel - ITC Maurya,"ITC Maurya
Sardar Patel Marg, Akhaura Block,
Diplomatic Enclave, Chanakyapuri,
New Delhi, Delhi 110021",28.5975,77.172897,1,0,https://d3orevttu06iqr.cloudfront.net/branding_logo/offline-pin/unavailable+pin.png,https://d3orevttu06iqr.cloudfront.net/branding_logo/unavailable+select.png
1158,Statiq Neelkanth Star Station,"Neelkanth Star Karnal, NH 44, Gharunda, Kutail, Haryana 132114",29.601764,76.980731,1,0,https://d3orevttu06iqr.cloudfront.net/charging-pin/normal+pin.png,https://d3orevttu06iqr.cloudfront.net/charging-pin/Statiq+selected.png
1159,Statiq Galleria Market Station,"DLF Phase IV, Sector 28, Gurugram, Haryana 122022",28.467724,77.082161,1,0,https://d3orevttu06iqr.cloudfront.net/charging-pin/Statiq+charging.png,https://d3orevttu06iqr.cloudfront.net/charging-pin/Statiq+charging+selected.png
1161,Statiq Highway Xpress (Jaipur-Delhi) Station,"Jaipur to Delhi Road, Behror Midway, Behror, Rajasthan 301701",27.87414,76.276299,1,0,https://d3orevttu06iqr.cloudfront.net/charging-pin/normal+pin.png,https://d3orevttu06iqr.cloudfront.net/charging-pin/Statiq+selected.png
1162,Statiq Fun and Food Carnival Station,"Fun and Food Carnival, NH 58, Khatauli Bypass, Bhainsi, Uttar Pradesh 251201",29.309559,77.721992,1,0,https://d3orevttu06iqr.cloudfront.net/charging-pin/normal+pin.png,https://d3orevttu06iqr.cloudfront.net/charging-pin/Statiq+selected.png
1173,Statiq Hotel Krishna Hansraj Una Station,"Old Hoshiarpur Rd, Una, Himachal Pradesh 174303",31.4671,76.256859,1,0,https://d3orevttu06iqr.cloudfront.net/branding_logo/offline-pin/unavailable+pin.png,https://statiq-images-prod.s3.ap-south-1.amazonaws.com/branding_logo/offline-pin/unavailable+pin.png
1174,Statiq SG Jabli Station,"VPO - Jabli, NH-22, Teh, Kasauli, Himachal Pradesh",30.878571,76.994904,1,0,https://d3orevttu06iqr.cloudfront.net/charging-pin/Statiq+charging.png,https://d3orevttu06iqr.cloudfront.net/charging-pin/Statiq+charging+selected.png
1180,SunFuel - 27 Summit (Private Charging Only for Residents),"No. 13, 1st Main Rd, Attibele Industrial Area, Bengaluru, Karnataka 562107",12.96414,77.59422,1,0,https://d3orevttu06iqr.cloudfront.net/charging-pin/Sunfuel+-+default.png,https://d3orevttu06iqr.cloudfront.net/charging-pin/Sunfuel+-+selected.png
1183,Statiq SG Karnal Station,"131 km Milestone, G. T, GT Karnal Rd, near Karna Lake, Karnal, Haryana 132001",29.738705,76.975582,1,0,https://d3orevttu06iqr.cloudfront.net/charging-pin/normal+pin.png,https://d3orevttu06iqr.cloudfront.net/charging-pin/Statiq+selected.png
1202,Ireo Uptown Charging Station,"Golf Course Ext Rd, Badshahpur, Sector 66, Gurugram, Haryana 122018",28.395901,77.059303,1,0,https://d3orevttu06iqr.cloudfront.net/charging-pin/EV+greens+default.png,https://d3orevttu06iqr.cloudfront.net/charging-pin/EV+Greens+-+selected.png
1204,VEEV A2B Kallar,"A2B, Kallar Road, Mettupalayam, Tamil Nadu",11.3217,76.916298,1,0,https://statiq-images-prod.s3.ap-south-1.amazonaws.com/branding_logo/Vaari+Energy/vaari+energy+pin.png,https://statiq-images-prod.s3.ap-south-1.amazonaws.com/branding_logo/vaari+energy+selected.png
1233,Heritage City AC Charging Station,"Heritage City 581-600 Flats, Heritage City, Sector 25, Gurugram, Haryana 122022",28.4823,77.076599,1,0,https://d3orevttu06iqr.cloudfront.net/charging-pin/EV+greens+default.png,https://d3orevttu06iqr.cloudfront.net/charging-pin/EV+Greens+-+selected.png
1234,Sunfuel - Hotel Fairmont Jaipur,"Hotel Fairmont Jaipur, Riico, 2, Jaipur Engineering College Rd, Kukas, Rajasthan 302028",27.030701,75.8899,1,0,https://d3orevttu06iqr.cloudfront.net/branding_logo/offline-pin/unavailable+pin.png,https://d3orevttu06iqr.cloudfront.net/branding_logo/unavailable+select.png
1235,Sunfuel - Le Méridien Jaipur Resort Hotel Hotel & Spa,"Le Méridien Jaipur Resort & Spa, Number 1 Riico, Kukas, Rajasthan 302028",27.032,75.888496,1,0,https://d3orevttu06iqr.cloudfront.net/branding_logo/offline-pin/unavailable+pin.png,https://d3orevttu06iqr.cloudfront.net/branding_logo/unavailable+select.png
1236,Sunfuel - The Westin Pushkar Resort & Spa,"The Westin Pushkar Resort & Spa, Khasra No. 1242 1243, 1196/1726, Village Surajkund, Motisar Rd, Pushkar, Rajasthan 305022",26.4547,74.504601,1,0,https://d3orevttu06iqr.cloudfront.net/branding_logo/offline-pin/unavailable+pin.png,https://d3orevttu06iqr.cloudfront.net/branding_logo/unavailable+select.png
1238,Sunfuel - Jaipur Marriott Hotel,"Hotel Jaipur Marriott, Near Ashram Marg, Jawahar Circle, Jaipur, Rajasthan 302015",26.841801,75.796204,1,0,https://d3orevttu06iqr.cloudfront.net/branding_logo/offline-pin/unavailable+pin.png,https://d3orevttu06iqr.cloudfront.net/branding_logo/unavailable+select.png
1339,Tellus Power DC Charging Station,"AH47, Maharashtra 415406",17.0749,74.222702,1,0,https://d3orevttu06iqr.cloudfront.net/branding_logo/offline-pin/unavailable+pin.png,https://statiq-images-prod.s3.ap-south-1.amazonaws.com/branding_logo/offline-pin/unavailable+pin.png
1460,Statiq Highway King Behror Station,"Highway King Behror, NH 8, 3 Kms from behror towards delhi, Behror, Rajasthan 301701",27.914499,76.314598,1,0,https://d3orevttu06iqr.cloudfront.net/charging-pin/normal+pin.png,https://d3orevttu06iqr.cloudfront.net/charging-pin/Statiq+selected.png
1461,Statiq Suket Cafe Station,"Suket Cafe, Pungh, National Highway 21, Sundar Nagar, Himachal Pradesh 175018",31.515301,76.876503,1,0,https://d3orevttu06iqr.cloudfront.net/charging-pin/Statiq+charging.png,https://d3orevttu06iqr.cloudfront.net/charging-pin/Statiq+charging+selected.png
1462,Statiq McDonalds Gajraula Station,"McDonald Gajraula, NH9-24 Salarpur, Dist, Gajraula, Uttar Pradesh 244235",28.8382,78.276398,1,0,https://d3orevttu06iqr.cloudfront.net/charging-pin/normal+pin.png,https://d3orevttu06iqr.cloudfront.net/charging-pin/Statiq+selected.png
1466,Sunfuel - Waterwoods Lodge & Resort,"19, Karapura, N.Belthur Post Office, HD Kote Taluk, Nagarhole National Park, Karnataka 571114",11.9377,76.265503,1,0,https://d3orevttu06iqr.cloudfront.net/branding_logo/offline-pin/unavailable+pin.png,https://d3orevttu06iqr.cloudfront.net/branding_logo/unavailable+select.png
1480,Sunfuel - Crowne Plaza Gurgaon,"Site No 2, Sector 29, Opposite Signature Tower, Gurugram, Haryana, 122001",28.4683,77.059898,1,0,https://d3orevttu06iqr.cloudfront.net/branding_logo/offline-pin/unavailable+pin.png,https://d3orevttu06iqr.cloudfront.net/branding_logo/unavailable+select.png
1486,PG Regency Resort DC Charging Station,"PG Regency,Govind Garden,103/1B, Plot no.4, Mumbai Goa HighWay, Mahad-Raigad, Mahad, Maharashtra 402301 Ph no. 7039892236",18.085871,73.432579,1,0,https://statiq-images-prod.s3.ap-south-1.amazonaws.com/branding_logo/offline-pin/unavailable+pin.png,https://statiq-images-prod.s3.ap-south-1.amazonaws.com/branding_logo/unavailable+select.png
1490,Sunfuel - Bangalore Golf Club,"2, High Grounds, Sankey Road,  Seshadripuram, Beside Sophia School,  Bengaluru, Karnataka 560020",12.986301,77.588501,1,0,https://d3orevttu06iqr.cloudfront.net/branding_logo/offline-pin/unavailable+pin.png,https://d3orevttu06iqr.cloudfront.net/branding_logo/unavailable+select.png
1509,"DMIPL EV Charging Station, Ludhiana","Dalbir Makkar India Pvt. Ltd., Ludhiana-Malerkotla Road, Opp. J K Resort, Rania, Ludhiana - 141122 (Punjab), Phone no 9814215411, 9316916147",30.822149,75.866768,1,0,https://statiq-images-prod.s3.ap-south-1.amazonaws.com/branding_logo/offline-pin/unavailable+pin.png,https://statiq-images-prod.s3.ap-south-1.amazonaws.com/branding_logo/unavailable+select.png
1513,VEEV Brookfields,"67-71, Dr Krishnasamy Mudaliyar Rd, Ram Nagar, Coimbatore, Tamil Nadu 641001",11.00791,76.96017,1,0,https://statiq-images-prod.s3.ap-south-1.amazonaws.com/charging-pin/Vaari+energy+charging.png,https://statiq-images-prod.s3.ap-south-1.amazonaws.com/charging-pin/Vaari+energy+charging+selected.png
1525,Nandavan DC Charging Station,"Nandavan, Mahajan Wadi, Near Bhimeshwar Mandir, At Post Nagaon, Taluka Alibag, Dist. Raigarh, Pin 402204, Phone no Kedar Bane, +919923724004, Prashant Mahajan - +919619174428",18.6187,72.900703,1,0,https://d3orevttu06iqr.cloudfront.net/branding_logo/offline-pin/unavailable+pin.png,https://statiq-images-prod.s3.ap-south-1.amazonaws.com/branding_logo/offline-pin/unavailable+pin.png
1532,Sunfuel - Club Mahindra Resort - Tungi,"Pavna Nagar, Maval Taluka, Tungi",18.663429,73.471657,1,0,https://d3orevttu06iqr.cloudfront.net/branding_logo/offline-pin/unavailable+pin.png,https://d3orevttu06iqr.cloudfront.net/branding_logo/unavailable+select.png
1536,ShriSamarth Beed Charging Station,"EV Charging Station, Near Mancott Jining Gevrai Road, NH 61, Phule Pimpalgaon, Maharashtra 431142",19.1779,76.167999,1,0,https://statiq-images-prod.s3.ap-south-1.amazonaws.com/branding_logo/statiq/statiq+pin.png,https://statiq-images-prod.s3.ap-south-1.amazonaws.com/branding_logo/locations+statiq+selected+.png
1540,Statiq Unity Mall Vasai Station,"Unity Mall, Stella Road, next to Big Bazzar, Bhabola, Vasai West, Maharashtra 401201",19.359301,72.812302,1,0,https://d3orevttu06iqr.cloudfront.net/charging-pin/normal+pin.png,https://d3orevttu06iqr.cloudfront.net/charging-pin/Statiq+selected.png
1541,Statiq Advant IT Park Station,"Advant IT Park, Plot No. 7, Noida-Greater Noida Expy, Sector 142, Noida, Uttar Pradesh 201305",28.500422,77.41053,1,0,https://d3orevttu06iqr.cloudfront.net/charging-pin/normal+pin.png,https://d3orevttu06iqr.cloudfront.net/charging-pin/Statiq+selected.png
1548,Sunfuel - Holiday Inn Goa Candolim,"Survey No. 52/5 & 8, Candolim, Bardez,",15.1589,73.947998,1,0,https://d3orevttu06iqr.cloudfront.net/branding_logo/offline-pin/unavailable+pin.png,https://d3orevttu06iqr.cloudfront.net/branding_logo/unavailable+select.png
1549,"Sunfuel - Evolve Back, Kabini","Evolve Back Kuruba Safari Lodge, Beeramballi Village & Post, H.D.Kote Taluk,",11.927,76.266998,1,0,https://d3orevttu06iqr.cloudfront.net/branding_logo/offline-pin/unavailable+pin.png,https://d3orevttu06iqr.cloudfront.net/branding_logo/unavailable+select.png
1550,Sunfuel - SAI Trivandrum Golf Club,"Golf Links Rd, Kowdiar Gardens, Kowdiar, Thiruvananthapuram, Kerala 695003",8.5234,76.966202,1,0,https://d3orevttu06iqr.cloudfront.net/branding_logo/offline-pin/unavailable+pin.png,https://d3orevttu06iqr.cloudfront.net/branding_logo/unavailable+select.png
1551,Sunfuel - Crowne Plaza Jaipur Tonk Road,"Plot No SP 1, Sitapura Industrial Area, Tonk Road, Jaipur, Rajasthan, 302022",26.779699,75.828201,1,0,https://d3orevttu06iqr.cloudfront.net/branding_logo/offline-pin/unavailable+pin.png,https://d3orevttu06iqr.cloudfront.net/branding_logo/unavailable+select.png
1552,Sunfuel - Crowne Plaza Pune City Centre,"37 & 37, Cts No, 1, Bund Garden Rd, next to Jehangir Hospital, Pune, Maharashtra 411001",18.5315,73.876801,1,0,https://d3orevttu06iqr.cloudfront.net/branding_logo/offline-pin/unavailable+pin.png,https://d3orevttu06iqr.cloudfront.net/branding_logo/unavailable+select.png
1554,Statiq Hans Resort Rewari Station,"Hans Resort, 91 Milestone, Delhi-Jaipur Highway, near Kasola Chowk, Rewari, Haryana 123401",28.12569,76.637749,1,0,https://d3orevttu06iqr.cloudfront.net/charging-pin/Statiq+charging.png,https://d3orevttu06iqr.cloudfront.net/charging-pin/Statiq+charging+selected.png
1555,Statiq Saviruchi Veg Station,"Saviruchi Veg, Sri Venkateshwara Arcade, Malavalli, Karnataka 571430",12.3847,77.0532,1,0,https://d3orevttu06iqr.cloudfront.net/charging-pin/normal+pin.png,https://d3orevttu06iqr.cloudfront.net/charging-pin/Statiq+selected.png
1556,Sunfuel - Club Mahindra Resort - Virajpet,"Village Karada Post, Virajpet Road, Palangala, Coorg, Karnataka 571212",12.208901,75.735397,1,0,https://d3orevttu06iqr.cloudfront.net/branding_logo/offline-pin/unavailable+pin.png,https://d3orevttu06iqr.cloudfront.net/branding_logo/unavailable+select.png
1558,Sunfuel - Club Mahindra Resort - Madikeri,"Galibeedu Road Kalakeri Nidugane Village, Madikeri, Karnataka - 571204",12.4407,75.716599,1,0,https://d3orevttu06iqr.cloudfront.net/branding_logo/offline-pin/unavailable+pin.png,https://d3orevttu06iqr.cloudfront.net/branding_logo/unavailable+select.png
1562,Sunfuel - Holiday Inn Chandigarh Zirakpur,"Raksha Business Centre, Ambala Chandigarh Expressway,",30.6395,76.822403,1,0,https://d3orevttu06iqr.cloudfront.net/branding_logo/offline-pin/unavailable+pin.png,https://d3orevttu06iqr.cloudfront.net/branding_logo/unavailable+select.png
1571,Statiq M&M Meet Associates Sultanpur Station,Indira Gandhi International Airport,26.257177,82.033279,1,0,https://d3orevttu06iqr.cloudfront.net/charging-pin/normal+pin.png,https://d3orevttu06iqr.cloudfront.net/charging-pin/Statiq+selected.png
1572,Statiq JEM Mall Station,Indira Gandhi International Airport,26.871798,75.775429,1,0,https://d3orevttu06iqr.cloudfront.net/charging-pin/normal+pin.png,https://d3orevttu06iqr.cloudfront.net/charging-pin/Statiq+selected.png
1574,TDPL Marshalls corner,,26.9028,75.752,1,0,https://d3orevttu06iqr.cloudfront.net/charging-pin/normal+pin.png,https://d3orevttu06iqr.cloudfront.net/charging-pin/Statiq+selected.png
1576,Statiq Hotel The Executive Inn Station,,19.7591,74.476402,1,0,https://d3orevttu06iqr.cloudfront.net/branding_logo/offline-pin/unavailable+pin.png,https://statiq-images-prod.s3.ap-south-1.amazonaws.com/branding_logo/offline-pin/unavailable+pin.png
1579,Statiq Savoy Suites Manesar Station,"Sector 1, Manesar",28.366404,76.944302,1,0,https://d3orevttu06iqr.cloudfront.net/charging-pin/normal+pin.png,https://d3orevttu06iqr.cloudfront.net/charging-pin/Statiq+selected.png
1583,TDPL Jaisinghpura EV Charging Station,,26.88,75.614,1,0,https://d3orevttu06iqr.cloudfront.net/charging-pin/normal+pin.png,https://d3orevttu06iqr.cloudfront.net/charging-pin/Statiq+selected.png
1586,Statiq Bhajan Singh Da Dhabha Station,,18.7005,73.693298,1,0,https://d3orevttu06iqr.cloudfront.net/branding_logo/offline-pin/unavailable+pin.png,https://statiq-images-prod.s3.ap-south-1.amazonaws.com/branding_logo/offline-pin/unavailable+pin.png
1587,Sunfuel - Riverside by Aahma,,29.48,79.150002,1,0,https://d3orevttu06iqr.cloudfront.net/branding_logo/offline-pin/unavailable+pin.png,https://d3orevttu06iqr.cloudfront.net/branding_logo/unavailable+select.png
1588,Sunfuel - Holiday Inn Kolkata Airport,,22.623301,88.443398,1,0,https://d3orevttu06iqr.cloudfront.net/branding_logo/offline-pin/unavailable+pin.png,https://d3orevttu06iqr.cloudfront.net/branding_logo/unavailable+select.png
1594,Statiq Mehak Garden Station,,29.527678,75.132639,1,0,https://d3orevttu06iqr.cloudfront.net/charging-pin/normal+pin.png,https://d3orevttu06iqr.cloudfront.net/charging-pin/Statiq+selected.png
1595,Sunfuel - Radisson Lonavala (Resort Guests),,18.7735,73.399101,1,0,https://d3orevttu06iqr.cloudfront.net/branding_logo/offline-pin/unavailable+pin.png,https://d3orevttu06iqr.cloudfront.net/branding_logo/unavailable+select.png
1596,Sunfuel - Radisson Blu Hotel Amritsar,,31.707069,74.819283,1,0,https://d3orevttu06iqr.cloudfront.net/branding_logo/offline-pin/unavailable+pin.png,https://d3orevttu06iqr.cloudfront.net/branding_logo/unavailable+select.png
1598,Sunfuel - Century Ethos,,13.06,77.589996,1,0,https://d3orevttu06iqr.cloudfront.net/branding_logo/offline-pin/unavailable+pin.png,https://d3orevttu06iqr.cloudfront.net/branding_logo/unavailable+select.png
1600,Statiq Savoy Suites Noida Station,,28.580385,77.3153,1,0,https://d3orevttu06iqr.cloudfront.net/charging-pin/normal+pin.png,https://d3orevttu06iqr.cloudfront.net/charging-pin/Statiq+selected.png
1601,Statiq Savoy Suites Greater Noida Station,,28.4648,77.5084,1,0,https://d3orevttu06iqr.cloudfront.net/charging-pin/normal+pin.png,https://d3orevttu06iqr.cloudfront.net/charging-pin/Statiq+selected.png
1603,Statiq Aman Hotel Shahbad Station,,30.205579,76.857331,1,0,https://d3orevttu06iqr.cloudfront.net/charging-pin/normal+pin.png,https://d3orevttu06iqr.cloudfront.net/charging-pin/Statiq+selected.png
1604,Sunfuel - Radisson Jaipur City Center,,26.920641,75.794563,1,0,https://d3orevttu06iqr.cloudfront.net/branding_logo/offline-pin/unavailable+pin.png,https://d3orevttu06iqr.cloudfront.net/branding_logo/unavailable+select.png
1605,Sunfuel - Radisson Udaipur,,24.5863,73.710503,1,0,https://d3orevttu06iqr.cloudfront.net/branding_logo/offline-pin/unavailable+pin.png,https://d3orevttu06iqr.cloudfront.net/branding_logo/unavailable+select.png
1607,Statiq Evershine Tower Jaipur Station,,26.9121,75.743103,1,0,https://d3orevttu06iqr.cloudfront.net/branding_logo/offline-pin/unavailable+pin.png,https://statiq-images-prod.s3.ap-south-1.amazonaws.com/branding_logo/offline-pin/unavailable+pin.png
1608,MESCOM Bhavan Charging Station,,12.8869,74.841797,1,0,https://statiq-images-prod.s3.ap-south-1.amazonaws.com/branding_logo/statiq/statiq+pin.png,https://statiq-images-prod.s3.ap-south-1.amazonaws.com/branding_logo/locations+statiq+selected+.png
1610,Statiq Hotel Shree Veg Solapur Station,,18.231529,74.773003,1,0,https://d3orevttu06iqr.cloudfront.net/branding_logo/offline-pin/unavailable+pin.png,https://statiq-images-prod.s3.ap-south-1.amazonaws.com/branding_logo/offline-pin/unavailable+pin.png
1611,Statiq Subway Bhiwadi Station,,28.196409,76.812057,1,0,https://d3orevttu06iqr.cloudfront.net/charging-pin/normal+pin.png,https://d3orevttu06iqr.cloudfront.net/charging-pin/Statiq+selected.png
1612,Statiq Asli Pappu Dhaba Kosi Kalan Station,,27.832701,77.419403,1,0,https://d3orevttu06iqr.cloudfront.net/charging-pin/normal+pin.png,https://d3orevttu06iqr.cloudfront.net/charging-pin/Statiq+selected.png
1613,Statiq 140% Veg Gulshan Dhaba Kotwan Station,,27.84745,77.409248,1,0,https://d3orevttu06iqr.cloudfront.net/charging-pin/normal+pin.png,https://d3orevttu06iqr.cloudfront.net/charging-pin/Statiq+selected.png
1614,Sunfuel - Radisson Blu Hotel Ahmedabad,,23.0242,72.556999,1,0,https://d3orevttu06iqr.cloudfront.net/charging-pin/Sunfuel+-+default.png,https://d3orevttu06iqr.cloudfront.net/charging-pin/Sunfuel+-+selected.png
1618,Sunfuel - Radisson Blu Plaza Delhi Airport,,28.5438,77.120201,1,0,https://d3orevttu06iqr.cloudfront.net/branding_logo/offline-pin/unavailable+pin.png,https://d3orevttu06iqr.cloudfront.net/branding_logo/unavailable+select.png
1620,MESCOM Mudigere Charging Station,,13.1459,75.641899,1,0,https://statiq-images-prod.s3.ap-south-1.amazonaws.com/branding_logo/statiq/statiq+pin.png,https://statiq-images-prod.s3.ap-south-1.amazonaws.com/branding_logo/locations+statiq+selected+.png
1621,Karkala Charging Station,,13.224446,74.980209,1,0,https://statiq-images-prod.s3.ap-south-1.amazonaws.com/branding_logo/offline-pin/unavailable+pin.png,https://statiq-images-prod.s3.ap-south-1.amazonaws.com/branding_logo/unavailable+select.png
1625,Kundapura Charging Station,,13.618559,74.691902,1,0,https://statiq-images-prod.s3.ap-south-1.amazonaws.com/branding_logo/offline-pin/unavailable+pin.png,https://statiq-images-prod.s3.ap-south-1.amazonaws.com/branding_logo/unavailable+select.png
1626,Manipal Charging Station,,13.333392,74.788429,1,0,https://statiq-images-prod.s3.ap-south-1.amazonaws.com/branding_logo/offline-pin/unavailable+pin.png,https://statiq-images-prod.s3.ap-south-1.amazonaws.com/branding_logo/unavailable+select.png
1630,MESCOM Nandi Gudda Charging Station,,12.8547,74.849197,1,0,https://statiq-images-prod.s3.ap-south-1.amazonaws.com/branding_logo/offline-pin/unavailable+pin.png,https://statiq-images-prod.s3.ap-south-1.amazonaws.com/branding_logo/unavailable+select.png
1636,MESCOM Mannagudda Charging Station,,12.883258,74.834839,1,0,https://statiq-images-prod.s3.ap-south-1.amazonaws.com/branding_logo/offline-pin/unavailable+pin.png,https://statiq-images-prod.s3.ap-south-1.amazonaws.com/branding_logo/unavailable+select.png
1641,Statiq Park Plaza Gurgaon Station,"B-BLOCK, Sushant Lok Phase I, Sector 43",28.4597,77.075798,1,0,https://d3orevttu06iqr.cloudfront.net/branding_logo/offline-pin/unavailable+pin.png,https://statiq-images-prod.s3.ap-south-1.amazonaws.com/branding_logo/offline-pin/unavailable+pin.png
1643,PADMASHREE Charging Station,,13.074,75.002502,1,0,https://statiq-images-prod.s3.ap-south-1.amazonaws.com/branding_logo/offline-pin/unavailable+pin.png,https://statiq-images-prod.s3.ap-south-1.amazonaws.com/branding_logo/unavailable+select.png
1644,Statiq Hotel Open Umbrella Station,,18.259439,73.262703,1,0,https://d3orevttu06iqr.cloudfront.net/charging-pin/normal+pin.png,https://d3orevttu06iqr.cloudfront.net/charging-pin/Statiq+selected.png
1661,Statiq x TATA.ev Crystal World Station,,29.900118,77.985222,1,0,https://d3orevttu06iqr.cloudfront.net/charging-pin/normal+pin.png,https://d3orevttu06iqr.cloudfront.net/charging-pin/Statiq+selected.png
1662,Statiq Hotel Prem Plaza Karnal Station,,29.691919,76.977997,1,0,https://d3orevttu06iqr.cloudfront.net/charging-pin/normal+pin.png,https://d3orevttu06iqr.cloudfront.net/charging-pin/Statiq+selected.png
1663,Kota Section Office Building MESCOM,,13.5169,74.706902,1,0,https://statiq-images-prod.s3.ap-south-1.amazonaws.com/branding_logo/offline-pin/unavailable+pin.png,https://statiq-images-prod.s3.ap-south-1.amazonaws.com/branding_logo/unavailable+select.png
1671,Balehonnur Subdivision Office Charging Station,,13.3237,75.5112,1,0,https://statiq-images-prod.s3.ap-south-1.amazonaws.com/branding_logo/statiq/statiq+pin.png,https://statiq-images-prod.s3.ap-south-1.amazonaws.com/branding_logo/locations+statiq+selected+.png
1672,Kalasa Section-1 Office Charging Station,,13.23468,75.356934,1,0,https://statiq-images-prod.s3.ap-south-1.amazonaws.com/branding_logo/offline-pin/unavailable+pin.png,https://statiq-images-prod.s3.ap-south-1.amazonaws.com/branding_logo/unavailable+select.png
1686,City Sub Division Sagara Charging Station,,14.1689,75.020691,1,0,https://statiq-images-prod.s3.ap-south-1.amazonaws.com/branding_logo/offline-pin/unavailable+pin.png,https://statiq-images-prod.s3.ap-south-1.amazonaws.com/branding_logo/unavailable+select.png
1688,Thirthahalli Sub Division Office Charging Station,,13.6944,75.245178,1,0,https://statiq-images-prod.s3.ap-south-1.amazonaws.com/branding_logo/offline-pin/unavailable+pin.png,https://statiq-images-prod.s3.ap-south-1.amazonaws.com/branding_logo/unavailable+select.png
1692,Soraba Sub Division Office Charging Station,,14.3831,75.105797,1,0,https://statiq-images-prod.s3.ap-south-1.amazonaws.com/branding_logo/offline-pin/unavailable+pin.png,https://statiq-images-prod.s3.ap-south-1.amazonaws.com/branding_logo/unavailable+select.png
1696,Shimoga CSD 3 Charging Station,,13.93931,75.540497,1,0,https://statiq-images-prod.s3.ap-south-1.amazonaws.com/branding_logo/offline-pin/unavailable+pin.png,https://statiq-images-prod.s3.ap-south-1.amazonaws.com/branding_logo/unavailable+select.png
1699,MESCOM Birur Sub Division Office Charging Station,,13.6133,75.984703,1,0,https://statiq-images-prod.s3.ap-south-1.amazonaws.com/branding_logo/offline-pin/unavailable+pin.png,https://statiq-images-prod.s3.ap-south-1.amazonaws.com/branding_logo/unavailable+select.png
1702,Chikmagaluru USD Charging Station,,13.3318,75.772903,1,0,https://statiq-images-prod.s3.ap-south-1.amazonaws.com/branding_logo/statiq/statiq+pin.png,https://statiq-images-prod.s3.ap-south-1.amazonaws.com/branding_logo/locations+statiq+selected+.png
1707,Statiq Bikanervala Sec-29 Station,"3-5 Near Leisure Valley Park, City Center, Sector 29 DLF",28.468958,77.063644,1,0,https://d3orevttu06iqr.cloudfront.net/branding_logo/offline-pin/unavailable+pin.png,https://statiq-images-prod.s3.ap-south-1.amazonaws.com/branding_logo/offline-pin/unavailable+pin.png
1713,Dharmasthala Section Office Charging Station,,12.9461,75.380898,1,0,https://statiq-images-prod.s3.ap-south-1.amazonaws.com/branding_logo/offline-pin/unavailable+pin.png,https://statiq-images-prod.s3.ap-south-1.amazonaws.com/branding_logo/unavailable+select.png
1715,Moodbidri Sub Division Office Charging Station,,13.0655,75.002899,1,0,https://statiq-images-prod.s3.ap-south-1.amazonaws.com/branding_logo/offline-pin/unavailable+pin.png,https://statiq-images-prod.s3.ap-south-1.amazonaws.com/branding_logo/unavailable+select.png
1717,Kaikamba Sub Division Office Charging Station,,12.943,74.926102,1,0,https://statiq-images-prod.s3.ap-south-1.amazonaws.com/branding_logo/offline-pin/unavailable+pin.png,https://statiq-images-prod.s3.ap-south-1.amazonaws.com/branding_logo/unavailable+select.png
1718,Mescom Division Office Bantwal,,12.8789,75.030899,1,0,https://statiq-images-prod.s3.ap-south-1.amazonaws.com/branding_logo/statiq/statiq+pin.png,https://statiq-images-prod.s3.ap-south-1.amazonaws.com/branding_logo/locations+statiq+selected+.png
1719,Kavoor Division Office Charging Station,,12.9244,74.863701,1,0,https://statiq-images-prod.s3.ap-south-1.amazonaws.com/branding_logo/offline-pin/unavailable+pin.png,https://statiq-images-prod.s3.ap-south-1.amazonaws.com/branding_logo/unavailable+select.png
1721,Statiq Hotel Madhavi Station,,24.840981,72.983627,1,0,https://d3orevttu06iqr.cloudfront.net/charging-pin/normal+pin.png,https://d3orevttu06iqr.cloudfront.net/charging-pin/Statiq+selected.png
1723,Statiq Chitrakoot Resorts and Restaurant Station,,24.83456,74.569504,1,0,https://d3orevttu06iqr.cloudfront.net/branding_logo/offline-pin/unavailable+pin.png,https://statiq-images-prod.s3.ap-south-1.amazonaws.com/branding_logo/offline-pin/unavailable+pin.png
1724,Sunfuel - Club Mahindra Resort - Puducherry,,11.8065,79.797096,1,0,https://d3orevttu06iqr.cloudfront.net/branding_logo/offline-pin/unavailable+pin.png,https://d3orevttu06iqr.cloudfront.net/branding_logo/unavailable+select.png
1726,Sunfuel - Amolak Towers Solan,,30.9077,77.092796,1,0,https://d3orevttu06iqr.cloudfront.net/branding_logo/offline-pin/unavailable+pin.png,https://d3orevttu06iqr.cloudfront.net/branding_logo/unavailable+select.png
1727,Sunfuel - Radisson Jass Shimla,,31.1122,77.177101,1,0,https://d3orevttu06iqr.cloudfront.net/branding_logo/offline-pin/unavailable+pin.png,https://d3orevttu06iqr.cloudfront.net/branding_logo/unavailable+select.png
1728,Statiq JMD Pacific Square Station,"95A PartII, Chander Nagar, Sector 15",28.463993,77.048721,1,0,https://d3orevttu06iqr.cloudfront.net/charging-pin/normal+pin.png,https://d3orevttu06iqr.cloudfront.net/charging-pin/Statiq+selected.png
1729,Statiq JMD Regent Square Station,"Mehrauli-Gurgaon Rd, Heritage City, Sector 25",28.48147,77.085281,1,0,https://d3orevttu06iqr.cloudfront.net/charging-pin/normal+pin.png,https://d3orevttu06iqr.cloudfront.net/charging-pin/Statiq+selected.png
1731,Sunfuel - Home Awaits 357 Bengaluru,,12.9669,77.716003,1,0,https://d3orevttu06iqr.cloudfront.net/branding_logo/offline-pin/unavailable+pin.png,https://d3orevttu06iqr.cloudfront.net/branding_logo/unavailable+select.png
1732,"Sunfuel - Radisson Blu Hotel & Spa, Nashik",,19.9473,73.755997,1,0,https://d3orevttu06iqr.cloudfront.net/branding_logo/offline-pin/unavailable+pin.png,https://d3orevttu06iqr.cloudfront.net/branding_logo/unavailable+select.png
1733,Sunfuel - Country Inn & Suites Manipal,,13.3602,74.785202,1,0,https://d3orevttu06iqr.cloudfront.net/branding_logo/offline-pin/unavailable+pin.png,https://d3orevttu06iqr.cloudfront.net/branding_logo/unavailable+select.png
1734,Sunfuel - Radisson Blu Resort Goa Cavelossim Beach,,15.1761,73.947098,1,0,https://d3orevttu06iqr.cloudfront.net/branding_logo/offline-pin/unavailable+pin.png,https://d3orevttu06iqr.cloudfront.net/branding_logo/unavailable+select.png
1736,Statiq Jhilmil Dhabha Station,,29.035276,77.070831,1,0,https://d3orevttu06iqr.cloudfront.net/charging-pin/normal+pin.png,https://d3orevttu06iqr.cloudfront.net/charging-pin/Statiq+selected.png
1744,Sunfuel - Auramah Valley Shimla,,31.1667,77.181702,1,0,https://d3orevttu06iqr.cloudfront.net/branding_logo/offline-pin/unavailable+pin.png,https://d3orevttu06iqr.cloudfront.net/branding_logo/unavailable+select.png
1745,Statiq Centrio Mall Station,,30.342807,78.048295,1,0,https://d3orevttu06iqr.cloudfront.net/charging-pin/normal+pin.png,https://d3orevttu06iqr.cloudfront.net/charging-pin/Statiq+selected.png
1750,Statiq JMD Megapolis Station,,28.419491,77.038818,1,0,https://d3orevttu06iqr.cloudfront.net/charging-pin/normal+pin.png,https://d3orevttu06iqr.cloudfront.net/charging-pin/Statiq+selected.png
1751,Statiq JMD Galleria Station,"G-36, JMD Galleria, Sector 48",28.420971,77.038467,1,0,https://d3orevttu06iqr.cloudfront.net/charging-pin/normal+pin.png,https://d3orevttu06iqr.cloudfront.net/charging-pin/Statiq+selected.png
1752,Statiq JMD Regent Plaza Station,"Jmd Regent Plaza, Mehrauli-Gurgaon Rd, near Guru Dronacharya",28.481291,77.100441,1,0,https://d3orevttu06iqr.cloudfront.net/charging-pin/normal+pin.png,https://d3orevttu06iqr.cloudfront.net/charging-pin/Statiq+selected.png
1755,Statiq Rang Mahal Station,,26.917288,70.886337,1,0,https://d3orevttu06iqr.cloudfront.net/charging-pin/Statiq+charging.png,https://d3orevttu06iqr.cloudfront.net/charging-pin/Statiq+charging+selected.png
1757,Statiq Berger Tower Station,,28.5746,77.313499,1,0,https://d3orevttu06iqr.cloudfront.net/branding_logo/offline-pin/unavailable+pin.png,https://statiq-images-prod.s3.ap-south-1.amazonaws.com/branding_logo/offline-pin/unavailable+pin.png
1775,Adani House Mundra Port Charging Station,,22.774733,69.683014,1,0,https://statiq-images-prod.s3.ap-south-1.amazonaws.com/branding_logo/offline-pin/unavailable+pin.png,https://statiq-images-prod.s3.ap-south-1.amazonaws.com/branding_logo/unavailable+select.png
1777,Shantivan Colony Mundra Port Charging Station,,22.852297,69.687119,1,0,https://statiq-images-prod.s3.ap-south-1.amazonaws.com/branding_logo/offline-pin/unavailable+pin.png,https://statiq-images-prod.s3.ap-south-1.amazonaws.com/branding_logo/unavailable+select.png
1790,Statiq Hotel The Suryaa Station,,28.561199,77.269501,1,0,https://d3orevttu06iqr.cloudfront.net/charging-pin/normal+pin.png,https://d3orevttu06iqr.cloudfront.net/charging-pin/Statiq+selected.png
1792,Sunfuel - Coorg Wilderness Resort & Spa,,12.4024,75.748398,1,0,https://d3orevttu06iqr.cloudfront.net/branding_logo/offline-pin/unavailable+pin.png,https://d3orevttu06iqr.cloudfront.net/branding_logo/unavailable+select.png
1793,Sunfuel - Radisson Mumbai Andheri MIDC,,19.118389,72.864754,1,0,https://d3orevttu06iqr.cloudfront.net/branding_logo/offline-pin/unavailable+pin.png,https://d3orevttu06iqr.cloudfront.net/branding_logo/unavailable+select.png
1794,Sunfuel - Radisson Salem,,11.6925,78.115097,1,0,https://d3orevttu06iqr.cloudfront.net/branding_logo/offline-pin/unavailable+pin.png,https://d3orevttu06iqr.cloudfront.net/branding_logo/unavailable+select.png
1796,Sunfuel - Radisson Blu Plaza Hotel Mysore,,12.2989,76.665398,1,0,https://d3orevttu06iqr.cloudfront.net/charging-pin/Sunfuel+-+default.png,https://d3orevttu06iqr.cloudfront.net/charging-pin/Sunfuel+-+selected.png
1800,Statiq x TATA.ev SS Plaza Station 1,"SS Plaza Parking, Vikas Marg, Block A, Sector 47",28.427299,77.056702,1,0,https://d3orevttu06iqr.cloudfront.net/charging-pin/Statiq+charging.png,https://d3orevttu06iqr.cloudfront.net/charging-pin/Statiq+charging+selected.png
1806,Sunfuel - Radisson Blu Atria Bengaluru,,12.98099,77.586151,1,0,https://d3orevttu06iqr.cloudfront.net/branding_logo/offline-pin/unavailable+pin.png,https://d3orevttu06iqr.cloudfront.net/branding_logo/unavailable+select.png
1809,Statiq Nexus Amritsar Station,,31.6194,74.907204,1,0,https://d3orevttu06iqr.cloudfront.net/charging-pin/normal+pin.png,https://d3orevttu06iqr.cloudfront.net/charging-pin/Statiq+selected.png
1810,Statiq x TATA.ev Elante Mall Chandigarh Station,,30.70577,76.801399,1,0,https://d3orevttu06iqr.cloudfront.net/charging-pin/Statiq+charging.png,https://d3orevttu06iqr.cloudfront.net/charging-pin/Statiq+charging+selected.png
1815,Statiq Navratan Hotel Station,,28.186047,76.613907,1,0,https://d3orevttu06iqr.cloudfront.net/charging-pin/normal+pin.png,https://d3orevttu06iqr.cloudfront.net/charging-pin/Statiq+selected.png
1818,Statiq Deepanshu Filling Station,,28.984699,76.971397,1,0,https://d3orevttu06iqr.cloudfront.net/charging-pin/normal+pin.png,https://d3orevttu06iqr.cloudfront.net/charging-pin/Statiq+selected.png
1819,Statiq Indian Oil Pump Rewari Station,,28.203951,76.698029,1,0,https://d3orevttu06iqr.cloudfront.net/charging-pin/normal+pin.png,https://d3orevttu06iqr.cloudfront.net/charging-pin/Statiq+selected.png
1821,GMR Green CCS Charging Station,,28.548837,77.121803,1,0,https://d3orevttu06iqr.cloudfront.net/charging-pin/GMR+default.png,https://d3orevttu06iqr.cloudfront.net/charging-pin/GMR+selected.png
1823,Flavia Electricals Charging Station,,12.8656,74.844803,1,0,https://d3orevttu06iqr.cloudfront.net/charging-pin/normal+pin.png,https://d3orevttu06iqr.cloudfront.net/charging-pin/Statiq+selected.png
1826,Sunfuel - The Quorum Club Lower Parel Mumbai,,19.0082,72.832199,1,0,https://d3orevttu06iqr.cloudfront.net/branding_logo/offline-pin/unavailable+pin.png,https://d3orevttu06iqr.cloudfront.net/branding_logo/unavailable+select.png
1841,Sunfuel - Radisson RED Chandigarh Mohali,,30.6744,76.740501,1,0,https://d3orevttu06iqr.cloudfront.net/branding_logo/offline-pin/unavailable+pin.png,https://d3orevttu06iqr.cloudfront.net/branding_logo/unavailable+select.png
1842,Statiq x TATA.ev Nexus Udaipur Celebration Mall Station,,24.61257,73.702522,1,0,https://d3orevttu06iqr.cloudfront.net/charging-pin/normal+pin.png,https://d3orevttu06iqr.cloudfront.net/charging-pin/Statiq+selected.png
1846,Sunfuel - WelcomHeritage Parv Vilas Resort & Spa,,30.854,77.072701,1,0,https://d3orevttu06iqr.cloudfront.net/branding_logo/offline-pin/unavailable+pin.png,https://d3orevttu06iqr.cloudfront.net/branding_logo/unavailable+select.png
1849,Sunfuel - Radisson Blu Resort & Spa - Alibaug,,18.6658,72.889198,1,0,https://d3orevttu06iqr.cloudfront.net/branding_logo/offline-pin/unavailable+pin.png,https://d3orevttu06iqr.cloudfront.net/branding_logo/unavailable+select.png
1852,Shivamogga CSD 1 Charging Station,,13.942,75.581902,1,0,https://statiq-images-prod.s3.ap-south-1.amazonaws.com/branding_logo/offline-pin/unavailable+pin.png,https://statiq-images-prod.s3.ap-south-1.amazonaws.com/branding_logo/unavailable+select.png
1854,Statiq Society Food Court Station,,32.001038,75.613258,1,0,https://d3orevttu06iqr.cloudfront.net/charging-pin/normal+pin.png,https://d3orevttu06iqr.cloudfront.net/charging-pin/Statiq+selected.png
1855,Sunfuel - Radisson Blu Hotel Guwahati,,26.1429,91.673698,1,0,https://d3orevttu06iqr.cloudfront.net/branding_logo/offline-pin/unavailable+pin.png,https://d3orevttu06iqr.cloudfront.net/branding_logo/unavailable+select.png
1856,GMR Green Worldmark 2 Charging Station,,28.551001,77.122002,1,0,https://d3orevttu06iqr.cloudfront.net/charging-pin/GMR+default.png,https://d3orevttu06iqr.cloudfront.net/charging-pin/GMR+selected.png
1857,RIICO Udyog Bhawan Charging Station,,26.901543,75.79911,1,0,https://statiq-images-prod.s3.ap-south-1.amazonaws.com/branding_logo/offline-pin/unavailable+pin.png,https://statiq-images-prod.s3.ap-south-1.amazonaws.com/branding_logo/unavailable+select.png
1859,Statiq Valley View Udaipur Station,,24.594,73.769508,1,0,https://d3orevttu06iqr.cloudfront.net/charging-pin/normal+pin.png,https://d3orevttu06iqr.cloudfront.net/charging-pin/Statiq+selected.png
1860,Statiq DMRC Hub Arjangarh Metro Station,"Gate No. 1, Arjangarh Metro Station",28.480803,77.125282,1,0,https://d3orevttu06iqr.cloudfront.net/charging-pin/Statiq+charging.png,https://d3orevttu06iqr.cloudfront.net/charging-pin/Statiq+charging+selected.png
1864,Durgam Cheruvu Charging Station,,17.436876,78.388519,1,0,https://d3orevttu06iqr.cloudfront.net/charging-pin/normal+pin.png,https://d3orevttu06iqr.cloudfront.net/charging-pin/Statiq+selected.png
1870,Statiq Jwalamala Station,,12.962459,76.748978,1,0,https://d3orevttu06iqr.cloudfront.net/charging-pin/normal+pin.png,https://d3orevttu06iqr.cloudfront.net/charging-pin/Statiq+selected.png
1871,Sunfuel - Radisson Hotel Kandla,,23.0863,70.106201,1,0,https://d3orevttu06iqr.cloudfront.net/branding_logo/offline-pin/unavailable+pin.png,https://d3orevttu06iqr.cloudfront.net/branding_logo/unavailable+select.png
1875,Sunfuel - Park Inn Amritsar,,31.7075,74.819099,1,0,https://d3orevttu06iqr.cloudfront.net/branding_logo/offline-pin/unavailable+pin.png,https://d3orevttu06iqr.cloudfront.net/branding_logo/unavailable+select.png
1877,Statiq Ramada Bareilly Station,,28.347281,79.428596,1,0,https://d3orevttu06iqr.cloudfront.net/charging-pin/normal+pin.png,https://d3orevttu06iqr.cloudfront.net/charging-pin/Statiq+selected.png
1879,Statiq DIT University Station,,30.400797,78.078491,1,0,https://d3orevttu06iqr.cloudfront.net/branding_logo/offline-pin/unavailable+pin.png,https://statiq-images-prod.s3.ap-south-1.amazonaws.com/branding_logo/offline-pin/unavailable+pin.png
1881,Statiq x TATA.ev Old Rao Kapriwas Station,,28.244396,76.81385,1,0,https://d3orevttu06iqr.cloudfront.net/charging-pin/Statiq+charging.png,https://d3orevttu06iqr.cloudfront.net/charging-pin/Statiq+charging+selected.png
1882,Statiq Fun Republic Mall Station,,26.85801,80.975879,1,0,https://d3orevttu06iqr.cloudfront.net/charging-pin/normal+pin.png,https://d3orevttu06iqr.cloudfront.net/charging-pin/Statiq+selected.png
1884,Statiq DMRC Hub Uttam Nagar East Metro Station,Uttam Nagar East Metro Station,28.626822,77.065704,1,0,https://d3orevttu06iqr.cloudfront.net/charging-pin/normal+pin.png,https://d3orevttu06iqr.cloudfront.net/charging-pin/Statiq+selected.png
1885,Statiq DMRC Hub Qutub Minar Metro Station,"Qutab Minar Metro Station, Mittal Garden, Sainik Farm",28.513317,77.186093,1,0,https://d3orevttu06iqr.cloudfront.net/charging-pin/Statiq+charging.png,https://d3orevttu06iqr.cloudfront.net/charging-pin/Statiq+charging+selected.png
1886,Statiq BSES Hub Rajouri Garden,,28.638378,77.121048,1,0,https://d3orevttu06iqr.cloudfront.net/charging-pin/normal+pin.png,https://d3orevttu06iqr.cloudfront.net/charging-pin/Statiq+selected.png
1890,Sunfuel - DLF Emporio,,28.543743,77.156593,1,0,https://d3orevttu06iqr.cloudfront.net/branding_logo/offline-pin/unavailable+pin.png,https://d3orevttu06iqr.cloudfront.net/branding_logo/unavailable+select.png
1891,EESL Statiq DTC Nehru Place Charging Station,,28.548472,77.255861,1,0,https://d3orevttu06iqr.cloudfront.net/branding_logo/offline-pin/unavailable+pin.png,https://statiq-images-prod.s3.ap-south-1.amazonaws.com/branding_logo/offline-pin/unavailable+pin.png
1892,Statiq DMRC Hub Nangloi Railway Station,"Rohtak Road, Tyagi Colony Nangloi Extension, Nangloi",28.682335,77.056053,1,0,https://d3orevttu06iqr.cloudfront.net/branding_logo/offline-pin/unavailable+pin.png,https://statiq-images-prod.s3.ap-south-1.amazonaws.com/branding_logo/offline-pin/unavailable+pin.png
1898,ADS Automobile EV Charging Station,,21.2181,81.449303,1,0,https://d3orevttu06iqr.cloudfront.net/branding_logo/offline-pin/unavailable+pin.png,https://statiq-images-prod.s3.ap-south-1.amazonaws.com/branding_logo/offline-pin/unavailable+pin.png
1909,Conrad Bengaluru,,12.976111,77.620331,1,0,https://d3orevttu06iqr.cloudfront.net/charging-pin/Sunfuel+-+default.png,https://d3orevttu06iqr.cloudfront.net/charging-pin/Sunfuel+-+selected.png
1913,ANG Farms Charging Station,"Old Mumbai - Pune Hwy, Vinegaon",18.880611,73.268997,1,0,https://d3orevttu06iqr.cloudfront.net/branding_logo/offline-pin/unavailable+pin.png,https://statiq-images-prod.s3.ap-south-1.amazonaws.com/branding_logo/offline-pin/unavailable+pin.png
1918,Statiq X TATA.ev Rao Tej Singh Market Dharuhera Station,,28.205074,76.78492,1,0,https://d3orevttu06iqr.cloudfront.net/charging-pin/normal+pin.png,https://d3orevttu06iqr.cloudfront.net/charging-pin/Statiq+selected.png
1919,Sunfuel - Radisson Blu Resort Karjat,,18.874781,73.362823,1,0,https://d3orevttu06iqr.cloudfront.net/branding_logo/offline-pin/unavailable+pin.png,https://d3orevttu06iqr.cloudfront.net/branding_logo/unavailable+select.png
1921,Statiq BSES Hub Janakpuri District Centre,,28.629295,77.082916,1,0,https://d3orevttu06iqr.cloudfront.net/charging-pin/normal+pin.png,https://d3orevttu06iqr.cloudfront.net/charging-pin/Statiq+selected.png
1933,Statiq DMRC Hub Dwarka Sector 10 Metro Station,,28.581657,77.056221,1,0,https://d3orevttu06iqr.cloudfront.net/branding_logo/offline-pin/unavailable+pin.png,https://statiq-images-prod.s3.ap-south-1.amazonaws.com/branding_logo/offline-pin/unavailable+pin.png
1934,Sunfuel - Radisson Blu Resort Kumbhalgarh,,25.125389,73.585258,1,0,https://d3orevttu06iqr.cloudfront.net/branding_logo/offline-pin/unavailable+pin.png,https://d3orevttu06iqr.cloudfront.net/branding_logo/unavailable+select.png
1935,Sunfuel - Radisson Gwalior,,26.20603,78.191849,1,0,https://d3orevttu06iqr.cloudfront.net/branding_logo/offline-pin/unavailable+pin.png,https://d3orevttu06iqr.cloudfront.net/branding_logo/unavailable+select.png
1937,Statiq x TATA.ev Nexus Koramangala Station,,12.934487,77.611359,1,0,https://d3orevttu06iqr.cloudfront.net/charging-pin/normal+pin.png,https://d3orevttu06iqr.cloudfront.net/charging-pin/Statiq+selected.png
1939,Sunfuel - Radisson Hotel Nathdwara,,24.917299,73.824577,1,0,https://d3orevttu06iqr.cloudfront.net/branding_logo/offline-pin/unavailable+pin.png,https://d3orevttu06iqr.cloudfront.net/branding_logo/unavailable+select.png
1940,Sunfuel - Radisson Blu Bengaluru Outer Ring Road,,12.95046,77.698982,1,0,https://d3orevttu06iqr.cloudfront.net/branding_logo/offline-pin/unavailable+pin.png,https://d3orevttu06iqr.cloudfront.net/branding_logo/unavailable+select.png
1941,Sunfuel - Radisson Gurugram Udyog Vihar,,28.509979,77.092102,1,0,https://d3orevttu06iqr.cloudfront.net/branding_logo/offline-pin/unavailable+pin.png,https://d3orevttu06iqr.cloudfront.net/branding_logo/unavailable+select.png
1942,"Sunfuel - Country Inn & Suites, Gurgaon Sector 12",,28.46978,77.038254,1,0,https://d3orevttu06iqr.cloudfront.net/charging-pin/Sunfuel+-+default.png,https://d3orevttu06iqr.cloudfront.net/charging-pin/Sunfuel+-+selected.png
1944,Sunfuel - Radisson Blu Hotel Greater Noida,,28.450171,77.527924,1,0,https://d3orevttu06iqr.cloudfront.net/branding_logo/offline-pin/unavailable+pin.png,https://d3orevttu06iqr.cloudfront.net/branding_logo/unavailable+select.png
1950,Sunfuel - Radisson Blu Hotel Indore,,22.75028,75.902748,1,0,https://d3orevttu06iqr.cloudfront.net/branding_logo/offline-pin/unavailable+pin.png,https://d3orevttu06iqr.cloudfront.net/branding_logo/unavailable+select.png
1953,Sunfuel - Radisson Noida,,28.6113,77.344269,1,0,https://d3orevttu06iqr.cloudfront.net/branding_logo/offline-pin/unavailable+pin.png,https://d3orevttu06iqr.cloudfront.net/branding_logo/unavailable+select.png
1956,Sunfuel - Radisson Blu Hotel Ranchi,,23.351521,85.324493,1,0,https://d3orevttu06iqr.cloudfront.net/charging-pin/Sunfuel+-+default.png,https://d3orevttu06iqr.cloudfront.net/charging-pin/Sunfuel+-+selected.png
1969,RTA Nagole track Charging Station,,17.369608,78.557564,1,0,https://d3orevttu06iqr.cloudfront.net/charging-pin/normal+pin.png,https://d3orevttu06iqr.cloudfront.net/charging-pin/Statiq+selected.png
1970,Saroornagar Stadium Charging Station,,17.354811,78.545502,1,0,https://d3orevttu06iqr.cloudfront.net/charging-pin/normal+pin.png,https://d3orevttu06iqr.cloudfront.net/charging-pin/Statiq+selected.png
1973,Statiq KFC Doraha Station,,30.786762,76.046883,1,0,https://d3orevttu06iqr.cloudfront.net/branding_logo/offline-pin/unavailable+pin.png,https://statiq-images-prod.s3.ap-south-1.amazonaws.com/branding_logo/offline-pin/unavailable+pin.png
1978,Manish Yadav Petro Point AC Charging Station,,28.226183,76.136208,1,0,https://d3orevttu06iqr.cloudfront.net/branding_logo/offline-pin/unavailable+pin.png,https://statiq-images-prod.s3.ap-south-1.amazonaws.com/branding_logo/offline-pin/unavailable+pin.png
1981,Sunfuel - Radisson Kufri,,31.101561,77.265991,1,0,https://d3orevttu06iqr.cloudfront.net/branding_logo/offline-pin/unavailable+pin.png,https://d3orevttu06iqr.cloudfront.net/branding_logo/unavailable+select.png
1992,Torrent Power - Ring Road EV Charging Station,,21.186434,72.838844,1,0,https://d3orevttu06iqr.cloudfront.net/charging-pin/torrent_map_pin.png,https://d3orevttu06iqr.cloudfront.net/charging-pin/torrent_focused.png
1993,Torrent Power - Dabholi EV Charging Station,,21.233553,72.80323,1,0,https://d3orevttu06iqr.cloudfront.net/charging-pin/torrent_map_pin.png,https://d3orevttu06iqr.cloudfront.net/charging-pin/torrent_focused.png
1994,Torrent Power - Prahladnagar EV Charging Station,,23.013746,72.506477,1,0,https://d3orevttu06iqr.cloudfront.net/charging-pin/torrent_map_pin.png,https://d3orevttu06iqr.cloudfront.net/charging-pin/torrent_focused.png
1995,Torrent Power - Naranpura EV Charging Station,,23.052956,72.548477,1,0,https://d3orevttu06iqr.cloudfront.net/charging-pin/torrent_map_pin.png,https://d3orevttu06iqr.cloudfront.net/charging-pin/torrent_focused.png
1996,Torrent Power - Drive inn EV Charging Station,,23.044277,72.546799,1,0,https://d3orevttu06iqr.cloudfront.net/charging-pin/torrent_map_pin.png,https://d3orevttu06iqr.cloudfront.net/charging-pin/torrent_focused.png
1997,Torrent Power - Raipur Darwaja EV Charging Station,,23.017349,72.596519,1,0,https://d3orevttu06iqr.cloudfront.net/charging-pin/torrent_map_pin.png,https://d3orevttu06iqr.cloudfront.net/charging-pin/torrent_focused.png
1998,Amberpet Police line Charging Station,,17.387215,78.516632,1,0,https://d3orevttu06iqr.cloudfront.net/charging-pin/Statiq+charging.png,https://d3orevttu06iqr.cloudfront.net/charging-pin/Statiq+charging+selected.png
1999,E seva center NGO colony Charging Station,,17.328178,78.568779,1,0,https://d3orevttu06iqr.cloudfront.net/branding_logo/offline-pin/unavailable+pin.png,https://statiq-images-prod.s3.ap-south-1.amazonaws.com/branding_logo/offline-pin/unavailable+pin.png
2000,Old Passport 0ffice Charging Station,,17.439096,78.498848,1,0,https://d3orevttu06iqr.cloudfront.net/charging-pin/normal+pin.png,https://d3orevttu06iqr.cloudfront.net/charging-pin/Statiq+selected.png
2001,HMDA Truck Park Charging Station,,17.302135,78.739655,1,0,https://d3orevttu06iqr.cloudfront.net/branding_logo/offline-pin/unavailable+pin.png,https://statiq-images-prod.s3.ap-south-1.amazonaws.com/branding_logo/offline-pin/unavailable+pin.png
2002,BHEL MIG Colony Charging Station,,17.48694,78.313484,1,0,https://d3orevttu06iqr.cloudfront.net/charging-pin/normal+pin.png,https://d3orevttu06iqr.cloudfront.net/charging-pin/Statiq+selected.png
2003,Krishna Kanth Park Charging Station,,17.44124,78.431824,1,0,https://d3orevttu06iqr.cloudfront.net/charging-pin/normal+pin.png,https://d3orevttu06iqr.cloudfront.net/charging-pin/Statiq+selected.png
2006,Statiq Chaar Bhai Station,,28.41897,77.157295,1,0,https://d3orevttu06iqr.cloudfront.net/branding_logo/offline-pin/unavailable+pin.png,https://statiq-images-prod.s3.ap-south-1.amazonaws.com/branding_logo/offline-pin/unavailable+pin.png
2008,Firstup Centre EV Charging Station,,21.24164,81.6474,1,0,https://d3orevttu06iqr.cloudfront.net/branding_logo/offline-pin/unavailable+pin.png,https://statiq-images-prod.s3.ap-south-1.amazonaws.com/branding_logo/offline-pin/unavailable+pin.png
2013,Statiq AICK Karnal Station,,29.723366,76.997612,1,0,https://d3orevttu06iqr.cloudfront.net/branding_logo/offline-pin/unavailable+pin.png,https://statiq-images-prod.s3.ap-south-1.amazonaws.com/branding_logo/offline-pin/unavailable+pin.png
2021,Statiq SSR Corporate Station,,28.458841,77.306145,1,0,https://d3orevttu06iqr.cloudfront.net/charging-pin/normal+pin.png,https://d3orevttu06iqr.cloudfront.net/charging-pin/Statiq+selected.png
2022,Statiq HP Pump Leopard Trail Station,,28.37933,76.993668,1,0,https://d3orevttu06iqr.cloudfront.net/charging-pin/normal+pin.png,https://d3orevttu06iqr.cloudfront.net/charging-pin/Statiq+selected.png
2026,Statiq Jubilant  Motors Station,,12.970239,80.218391,1,0,https://d3orevttu06iqr.cloudfront.net/charging-pin/normal+pin.png,https://d3orevttu06iqr.cloudfront.net/charging-pin/Statiq+selected.png
2028,Statiq Gurukrupa Square Station,,12.875357,77.648338,1,0,https://d3orevttu06iqr.cloudfront.net/charging-pin/normal+pin.png,https://d3orevttu06iqr.cloudfront.net/charging-pin/Statiq+selected.png
2029,Statiq SS Plaza Station 3,,28.426907,77.056892,1,0,https://d3orevttu06iqr.cloudfront.net/branding_logo/offline-pin/unavailable+pin.png,https://statiq-images-prod.s3.ap-south-1.amazonaws.com/branding_logo/offline-pin/unavailable+pin.png
2030,Statiq MM Motors Station,,13.0388,80.133102,1,0,https://d3orevttu06iqr.cloudfront.net/branding_logo/offline-pin/unavailable+pin.png,https://statiq-images-prod.s3.ap-south-1.amazonaws.com/branding_logo/offline-pin/unavailable+pin.png
2031,Hyundai Clean Quest Services Charging Station,,12.5734,78.169403,1,0,https://d3orevttu06iqr.cloudfront.net/network-branding/Hyundai/hyundai-online-not-selected.png,https://d3orevttu06iqr.cloudfront.net/network-branding/Hyundai/hyundai-online-selected.png
2032,Statiq x TATA.ev Hotel VV Srini Station,,13.74971,77.788086,1,0,https://d3orevttu06iqr.cloudfront.net/charging-pin/normal+pin.png,https://d3orevttu06iqr.cloudfront.net/charging-pin/Statiq+selected.png
2042,Chandanagar GHMC Office Charging Station,,17.494684,78.325989,1,0,https://d3orevttu06iqr.cloudfront.net/charging-pin/normal+pin.png,https://d3orevttu06iqr.cloudfront.net/charging-pin/Statiq+selected.png
2046,Aryan Hotel Charging Station,,27.359102,75.589821,1,0,https://statiq-images-prod.s3.ap-south-1.amazonaws.com/branding_logo/offline-pin/unavailable+pin.png,https://statiq-images-prod.s3.ap-south-1.amazonaws.com/branding_logo/unavailable+select.png
2047,Statiq SS Plaza Station 2,,28.426933,77.0569,1,0,https://d3orevttu06iqr.cloudfront.net/charging-pin/normal+pin.png,https://d3orevttu06iqr.cloudfront.net/charging-pin/Statiq+selected.png
2049,Statiq Stellar Okas Station,,28.503206,77.414421,1,0,https://d3orevttu06iqr.cloudfront.net/charging-pin/normal+pin.png,https://d3orevttu06iqr.cloudfront.net/charging-pin/Statiq+selected.png
2050,Statiq Hotel Sunbird Station,,27.205263,77.510269,1,0,https://d3orevttu06iqr.cloudfront.net/branding_logo/offline-pin/unavailable+pin.png,https://statiq-images-prod.s3.ap-south-1.amazonaws.com/branding_logo/offline-pin/unavailable+pin.png
2054,Statiq Nexus Esplanade Station,,20.2915,85.856018,1,0,https://d3orevttu06iqr.cloudfront.net/charging-pin/normal+pin.png,https://d3orevttu06iqr.cloudfront.net/charging-pin/Statiq+selected.png
2056,Statiq Marwar Motors Station,,26.717354,77.896004,1,0,https://d3orevttu06iqr.cloudfront.net/charging-pin/normal+pin.png,https://d3orevttu06iqr.cloudfront.net/charging-pin/Statiq+selected.png
2058,Statiq Gautam Garden Station,,29.2652,77.005402,1,0,https://d3orevttu06iqr.cloudfront.net/charging-pin/normal+pin.png,https://d3orevttu06iqr.cloudfront.net/charging-pin/Statiq+selected.png
2067,Hyundai Bikanervala Sec-57 Gurgaon Station,,28.416418,77.084969,1,0,https://d3orevttu06iqr.cloudfront.net/network-branding/Hyundai/hyundai-online-not-selected.png,https://d3orevttu06iqr.cloudfront.net/network-branding/Hyundai/hyundai-online-selected.png
2069,Statiq Hotel The Vaishvik Station,,32.993755,74.934509,1,0,https://d3orevttu06iqr.cloudfront.net/charging-pin/normal+pin.png,https://d3orevttu06iqr.cloudfront.net/charging-pin/Statiq+selected.png
2082,Carber Charging Station- Lotus Panache,,28.531401,77.382797,1,0,https://statiq-images-prod.s3.ap-south-1.amazonaws.com/branding_logo/offline-pin/unavailable+pin.png,https://statiq-images-prod.s3.ap-south-1.amazonaws.com/branding_logo/unavailable+select.png
2083,Statiq Padam High Street Station,,27.148661,78.053047,1,0,https://d3orevttu06iqr.cloudfront.net/charging-pin/normal+pin.png,https://d3orevttu06iqr.cloudfront.net/charging-pin/Statiq+selected.png
2084,Statiq Trifecta Adatto Station,,12.994325,77.699249,1,0,https://d3orevttu06iqr.cloudfront.net/charging-pin/normal+pin.png,https://d3orevttu06iqr.cloudfront.net/charging-pin/Statiq+selected.png
2086,Sunfuel - Holiday Inn Lucknow Airport,,26.7775,80.881416,1,0,https://d3orevttu06iqr.cloudfront.net/branding_logo/offline-pin/unavailable+pin.png,https://d3orevttu06iqr.cloudfront.net/branding_logo/unavailable+select.png
2088,Near LB Stadium EV Charging Station,,17.399668,78.470924,1,0,https://d3orevttu06iqr.cloudfront.net/branding_logo/offline-pin/unavailable+pin.png,https://statiq-images-prod.s3.ap-south-1.amazonaws.com/branding_logo/offline-pin/unavailable+pin.png
2089,Statiq Divyasree NR Enclave Station,,12.98647,77.730392,1,0,https://d3orevttu06iqr.cloudfront.net/charging-pin/normal+pin.png,https://d3orevttu06iqr.cloudfront.net/charging-pin/Statiq+selected.png
2091,7 Tombs EV Charging Station,,17.393564,78.400154,1,0,https://d3orevttu06iqr.cloudfront.net/branding_logo/offline-pin/unavailable+pin.png,https://statiq-images-prod.s3.ap-south-1.amazonaws.com/branding_logo/offline-pin/unavailable+pin.png
2097,Statiq Nexus Shantiniketan Station,,12.9896,77.728104,1,0,https://d3orevttu06iqr.cloudfront.net/charging-pin/normal+pin.png,https://d3orevttu06iqr.cloudfront.net/charging-pin/Statiq+selected.png
2099,Statiq New Sangeeta Station,,16.934099,76.261398,1,0,https://d3orevttu06iqr.cloudfront.net/branding_logo/offline-pin/unavailable+pin.png,https://statiq-images-prod.s3.ap-south-1.amazonaws.com/branding_logo/offline-pin/unavailable+pin.png
2103,BP Jigani Charging Station,,12.778751,77.642075,1,0,https://statiq-images-prod.s3.ap-south-1.amazonaws.com/branding_logo/offline-pin/unavailable+pin.png,https://statiq-images-prod.s3.ap-south-1.amazonaws.com/branding_logo/unavailable+select.png
2104,Patel Service Charging Station,,13.089294,77.649025,1,0,https://statiq-images-prod.s3.ap-south-1.amazonaws.com/branding_logo/offline-pin/unavailable+pin.png,https://statiq-images-prod.s3.ap-south-1.amazonaws.com/branding_logo/unavailable+select.png
2105,Jayadev Fuel Junction Charging Station,,12.799297,77.624161,1,0,https://statiq-images-prod.s3.ap-south-1.amazonaws.com/branding_logo/offline-pin/unavailable+pin.png,https://statiq-images-prod.s3.ap-south-1.amazonaws.com/branding_logo/unavailable+select.png
2106,"Thunder EV Charging HUB at Sunshine Farm House, Kandukur","Sunshine Farm House, Kandukur ,via hyd, to, S",17.030805,78.488293,1,0,https://d3orevttu06iqr.cloudfront.net/branding_logo/offline-pin/unavailable+pin.png,https://d3orevttu06iqr.cloudfront.net/branding_logo/unavailable+select.png
2108,Sharvil Ventures,"Plot 78, Road 2, 
Sector 1/S
New Panvel (Ea",18.997056,73.117936,1,0,https://d3orevttu06iqr.cloudfront.net/charging-pin/eFill+-+default.png,https://d3orevttu06iqr.cloudfront.net/charging-pin/eFill+-+selected.png
2111,Clarks Avadh,"8, Mahatma Gandhi Marg, Narpatkhera, Hazratga",26.856651,80.93543,1,0,https://d3orevttu06iqr.cloudfront.net/branding_logo/offline-pin/unavailable+pin.png,https://d3orevttu06iqr.cloudfront.net/branding_logo/unavailable+select.png
2112,Ashirwad Mangal Kalyan Charging Station,"15, Om Nagar, Kalaburagi, Karnataka 585105, I",17.327285,76.867849,1,0,https://d3orevttu06iqr.cloudfront.net/charging-pin/eFill+-+default.png,https://d3orevttu06iqr.cloudfront.net/charging-pin/eFill+-+selected.png
2123,Faction Automobiles Pvt. Ltd.,"Plot No.4, Opp Kanishka Farm, Near Rama Vihar",28.72842,77.04717,1,0,https://d3orevttu06iqr.cloudfront.net/charging-pin/eFill+-+default.png,https://d3orevttu06iqr.cloudfront.net/charging-pin/eFill+-+selected.png
2127,Statiq Hotel Tourist Boarding Restaurant Station,,16.664479,75.806522,1,0,https://d3orevttu06iqr.cloudfront.net/charging-pin/Statiq+charging.png,https://d3orevttu06iqr.cloudfront.net/charging-pin/Statiq+charging+selected.png
2128,Statiq MR Residency Station,,16.052355,76.065956,1,0,https://d3orevttu06iqr.cloudfront.net/charging-pin/normal+pin.png,https://d3orevttu06iqr.cloudfront.net/charging-pin/Statiq+selected.png
2129,Statiq Hotel Anand Vihar Station,,14.621218,76.459305,1,0,https://d3orevttu06iqr.cloudfront.net/branding_logo/offline-pin/unavailable+pin.png,https://statiq-images-prod.s3.ap-south-1.amazonaws.com/branding_logo/offline-pin/unavailable+pin.png
2131,Statiq Hotel Regent Laguna Station,,15.583175,73.744354,1,0,https://d3orevttu06iqr.cloudfront.net/charging-pin/normal+pin.png,https://d3orevttu06iqr.cloudfront.net/charging-pin/Statiq+selected.png
2132,Statiq Hotel Poorvi Residency Station,,15.63888,76.220383,1,0,https://d3orevttu06iqr.cloudfront.net/branding_logo/offline-pin/unavailable+pin.png,https://statiq-images-prod.s3.ap-south-1.amazonaws.com/branding_logo/offline-pin/unavailable+pin.png
2134,Sri Nageshwara Filling Center Charging Station,,12.892418,77.52137,1,0,https://statiq-images-prod.s3.ap-south-1.amazonaws.com/branding_logo/offline-pin/unavailable+pin.png,https://statiq-images-prod.s3.ap-south-1.amazonaws.com/branding_logo/unavailable+select.png
2137,Mangurish Petro Services Charging Station,,15.44965,73.969482,1,0,https://statiq-images-prod.s3.ap-south-1.amazonaws.com/branding_logo/offline-pin/unavailable+pin.png,https://statiq-images-prod.s3.ap-south-1.amazonaws.com/branding_logo/unavailable+select.png
2139,Ramesh Service Charging Station,,30.90247,77.107689,1,0,https://statiq-images-prod.s3.ap-south-1.amazonaws.com/branding_logo/offline-pin/unavailable+pin.png,https://statiq-images-prod.s3.ap-south-1.amazonaws.com/branding_logo/unavailable+select.png
2151,Sunfuel - Club Mahindra Resort Varca Beach Goa,,15.22432,73.93364,1,0,https://d3orevttu06iqr.cloudfront.net/branding_logo/offline-pin/unavailable+pin.png,https://d3orevttu06iqr.cloudfront.net/branding_logo/unavailable+select.png
2161,Statiq Athidhi 44 Drive-in Station,,15.887323,78.017479,1,0,https://d3orevttu06iqr.cloudfront.net/charging-pin/normal+pin.png,https://d3orevttu06iqr.cloudfront.net/charging-pin/Statiq+selected.png
2163,Statiq JTM Mall Station,,26.836817,75.834404,1,0,https://d3orevttu06iqr.cloudfront.net/charging-pin/normal+pin.png,https://d3orevttu06iqr.cloudfront.net/charging-pin/Statiq+selected.png
2165,Statiq x TATA.ev Nexus Whitefield Station,,12.959724,77.748047,1,0,https://d3orevttu06iqr.cloudfront.net/charging-pin/normal+pin.png,https://d3orevttu06iqr.cloudfront.net/charging-pin/Statiq+selected.png
2169,Statiq Hotel S4G Veg Theur Phata Station,,18.489042,74.047157,1,0,https://d3orevttu06iqr.cloudfront.net/charging-pin/normal+pin.png,https://d3orevttu06iqr.cloudfront.net/charging-pin/Statiq+selected.png
2173,Statiq Star Automobile Station,,23.172773,79.865746,1,0,https://d3orevttu06iqr.cloudfront.net/charging-pin/Statiq+charging.png,https://d3orevttu06iqr.cloudfront.net/charging-pin/Statiq+charging+selected.png
2179,Statiq Hotel BHP6 Station,,17.771616,77.114227,1,0,https://d3orevttu06iqr.cloudfront.net/charging-pin/normal+pin.png,https://d3orevttu06iqr.cloudfront.net/charging-pin/Statiq+selected.png
2186,E-Fill Electric (EFEV Charging Solutions Pvt. Ltd.),"PLOT - 1670, Rai Industrial Estate, Sector 38",28.932872,77.090041,1,0,https://d3orevttu06iqr.cloudfront.net/branding_logo/offline-pin/unavailable+pin.png,https://d3orevttu06iqr.cloudfront.net/branding_logo/unavailable+select.png
2187,SERVICE KEEDA,"plot no.127, omkar height, Shop no.01, Sector",19.051141,73.076621,1,0,https://d3orevttu06iqr.cloudfront.net/branding_logo/offline-pin/unavailable+pin.png,https://d3orevttu06iqr.cloudfront.net/branding_logo/unavailable+select.png
2188,Sri Ram Garden by Jains Apartment,"Sri ram garden, Suchitra Rd, Ramraj Nagar, Gr",17.501372,78.476594,1,0,https://d3orevttu06iqr.cloudfront.net/charging-pin/eFill+-+default.png,https://d3orevttu06iqr.cloudfront.net/charging-pin/eFill+-+selected.png
2192,Hotel Mayura,"99 MG Road, Chhatrapati Shivaji Maharaj Chowk",17.680535,75.900084,1,0,https://d3orevttu06iqr.cloudfront.net/charging-pin/eFill+charging.png,https://d3orevttu06iqr.cloudfront.net/charging-pin/eFill+charging+selected.png
2193,Vishwas Home Stay,"Kotawde, Maharashtra 415617, India",17.093463,73.31178,1,0,https://d3orevttu06iqr.cloudfront.net/branding_logo/offline-pin/unavailable+pin.png,https://d3orevttu06iqr.cloudfront.net/branding_logo/unavailable+select.png
2195,Hotel Chandrabal,"Gate No -304,Solapur - Pune Highway, Kondi, N",17.730045,75.834396,1,0,https://d3orevttu06iqr.cloudfront.net/branding_logo/offline-pin/unavailable+pin.png,https://d3orevttu06iqr.cloudfront.net/branding_logo/unavailable+select.png
2196,Sapphire Multi-speciality Hospital Nashik,"Pacific Technologies
Bungalow No-1/22,Pushpa",19.999169,73.784114,1,0,https://d3orevttu06iqr.cloudfront.net/branding_logo/offline-pin/unavailable+pin.png,https://d3orevttu06iqr.cloudfront.net/branding_logo/unavailable+select.png
2198,Hotel Nagraj's Majestic,"At-Lavahla, Post-Warul, Kolhapur-Ratnagiri hi",16.956928,73.855547,1,0,https://d3orevttu06iqr.cloudfront.net/charging-pin/eFill+-+default.png,https://d3orevttu06iqr.cloudfront.net/charging-pin/eFill+-+selected.png
2201,Hotel SN Residency,"Hotel S N Residency, Road, Charleville, Musso",30.463237,78.061663,1,0,https://d3orevttu06iqr.cloudfront.net/charging-pin/eFill+-+default.png,https://d3orevttu06iqr.cloudfront.net/charging-pin/eFill+-+selected.png
2205,Kissan Motors,"NH-58, Khanupur , Mansurpur, Muzaffarnagar- 2",29.3478,77.71449,1,0,https://d3orevttu06iqr.cloudfront.net/charging-pin/eFill+-+default.png,https://d3orevttu06iqr.cloudfront.net/charging-pin/eFill+-+selected.png
2209,RAJESH 8787,"Hupari, Maharashtra 416203",16.630419,74.398124,1,0,https://d3orevttu06iqr.cloudfront.net/branding_logo/offline-pin/unavailable+pin.png,https://d3orevttu06iqr.cloudfront.net/branding_logo/unavailable+select.png
2211,Sunfuel - Club Mahindra Ashtamudi Kollam,,8.96625,76.569229,1,0,https://d3orevttu06iqr.cloudfront.net/branding_logo/offline-pin/unavailable+pin.png,https://d3orevttu06iqr.cloudfront.net/branding_logo/unavailable+select.png
2212,Statiq Hotel Sindhura Station,,16.766662,78.125021,1,0,https://d3orevttu06iqr.cloudfront.net/charging-pin/normal+pin.png,https://d3orevttu06iqr.cloudfront.net/charging-pin/Statiq+selected.png
2213,Statiq Divyasree Greens Station,,12.9537,77.641998,1,0,https://d3orevttu06iqr.cloudfront.net/charging-pin/normal+pin.png,https://d3orevttu06iqr.cloudfront.net/charging-pin/Statiq+selected.png
2215,Statiq Divyasree Chambers Station,,12.96162,77.599297,1,0,https://d3orevttu06iqr.cloudfront.net/branding_logo/offline-pin/unavailable+pin.png,https://statiq-images-prod.s3.ap-south-1.amazonaws.com/branding_logo/offline-pin/unavailable+pin.png
2216,Sunfuel - Club Mahindra Poovar,,8.30736,77.085983,1,0,https://d3orevttu06iqr.cloudfront.net/branding_logo/offline-pin/unavailable+pin.png,https://d3orevttu06iqr.cloudfront.net/branding_logo/unavailable+select.png
2217,Sunfuel - Club Mahindra Resort Jalmahal Jaipur,,26.944281,75.838966,1,0,https://d3orevttu06iqr.cloudfront.net/branding_logo/offline-pin/unavailable+pin.png,https://d3orevttu06iqr.cloudfront.net/branding_logo/unavailable+select.png
2218,Sunfuel - Club Mahindra Tropicana Alibaug,,18.7234,72.891876,1,0,https://d3orevttu06iqr.cloudfront.net/branding_logo/offline-pin/unavailable+pin.png,https://d3orevttu06iqr.cloudfront.net/branding_logo/unavailable+select.png
2219,Sunfuel - Club Mahindra Tree House Resort Jaipur,,27.177259,75.976448,1,0,https://d3orevttu06iqr.cloudfront.net/branding_logo/offline-pin/unavailable+pin.png,https://d3orevttu06iqr.cloudfront.net/branding_logo/unavailable+select.png
2221,Sunfuel - Welcom Heritage Santa Roza Kasauli,,30.901609,76.964218,1,0,https://d3orevttu06iqr.cloudfront.net/branding_logo/offline-pin/unavailable+pin.png,https://d3orevttu06iqr.cloudfront.net/branding_logo/unavailable+select.png
2226,GHMC Circle Office  Kapra EV Charging Station,,17.470036,78.566345,1,0,https://d3orevttu06iqr.cloudfront.net/charging-pin/normal+pin.png,https://d3orevttu06iqr.cloudfront.net/charging-pin/Statiq+selected.png
2228,Sunfuel - WelcomHeritage Cheetahgarh Resort & Spa,,25.01741,73.142029,1,0,https://d3orevttu06iqr.cloudfront.net/branding_logo/offline-pin/unavailable+pin.png,https://d3orevttu06iqr.cloudfront.net/branding_logo/unavailable+select.png
2230,Statiq M&M - Sleeba & Sons Station,,8.54501,76.972099,1,0,https://d3orevttu06iqr.cloudfront.net/charging-pin/normal+pin.png,https://d3orevttu06iqr.cloudfront.net/charging-pin/Statiq+selected.png
2231,Statiq Hyatt Palace Bharuch Station,,21.711342,73.000534,1,0,https://d3orevttu06iqr.cloudfront.net/charging-pin/normal+pin.png,https://d3orevttu06iqr.cloudfront.net/charging-pin/Statiq+selected.png
2237,Statiq Hotel Regenta Central Bharuch Station,,21.725079,73.006653,1,0,https://d3orevttu06iqr.cloudfront.net/charging-pin/normal+pin.png,https://d3orevttu06iqr.cloudfront.net/charging-pin/Statiq+selected.png
2239,Statiq DivyaSree Solitaire Station,,17.436689,78.38177,1,0,https://d3orevttu06iqr.cloudfront.net/charging-pin/Statiq+charging.png,https://d3orevttu06iqr.cloudfront.net/charging-pin/Statiq+charging+selected.png
2240,Statiq Radhe Radhe Restaurant Station,,26.6994,79.140404,1,0,https://d3orevttu06iqr.cloudfront.net/charging-pin/normal+pin.png,https://d3orevttu06iqr.cloudfront.net/charging-pin/Statiq+selected.png
2241,Statiq DC Foods Station,,26.456445,80.207726,1,0,https://d3orevttu06iqr.cloudfront.net/charging-pin/normal+pin.png,https://d3orevttu06iqr.cloudfront.net/charging-pin/Statiq+selected.png
2243,Statiq Shyama Sarovar Portico Station,,25.962093,79.461197,1,0,https://d3orevttu06iqr.cloudfront.net/charging-pin/normal+pin.png,https://d3orevttu06iqr.cloudfront.net/charging-pin/Statiq+selected.png
2245,Vishnu Shopping Mall  Kondamallepally,Kondamallepalli Near Mallepalli Telangana-508,16.712303,78.981738,1,0,https://d3orevttu06iqr.cloudfront.net/branding_logo/offline-pin/unavailable+pin.png,https://d3orevttu06iqr.cloudfront.net/branding_logo/unavailable+select.png
2248,Statiq Hotel Rajhans Station,,25.640711,74.59523,1,0,https://d3orevttu06iqr.cloudfront.net/charging-pin/normal+pin.png,https://d3orevttu06iqr.cloudfront.net/charging-pin/Statiq+selected.png
2251,"Sunfuel - WelcomHeritage Ramgarh, Panchkula-Chandi",,30.647881,76.886581,1,0,https://d3orevttu06iqr.cloudfront.net/branding_logo/offline-pin/unavailable+pin.png,https://d3orevttu06iqr.cloudfront.net/branding_logo/unavailable+select.png
2257,Statiq DivyaSree LitBox Station,,12.9711,77.724998,1,0,https://d3orevttu06iqr.cloudfront.net/charging-pin/Statiq+charging.png,https://d3orevttu06iqr.cloudfront.net/charging-pin/Statiq+charging+selected.png
2260,Statiq Hotel Rangat Station,,18.760963,73.444954,1,0,https://d3orevttu06iqr.cloudfront.net/branding_logo/offline-pin/unavailable+pin.png,https://statiq-images-prod.s3.ap-south-1.amazonaws.com/branding_logo/offline-pin/unavailable+pin.png
2263,Statiq Hotel Royal Inn Station,,17.771574,75.742371,1,0,https://d3orevttu06iqr.cloudfront.net/branding_logo/offline-pin/unavailable+pin.png,https://statiq-images-prod.s3.ap-south-1.amazonaws.com/branding_logo/offline-pin/unavailable+pin.png
2264,Statiq Hotel Sai Prasad Station,,17.817943,76.301643,1,0,https://d3orevttu06iqr.cloudfront.net/branding_logo/offline-pin/unavailable+pin.png,https://statiq-images-prod.s3.ap-south-1.amazonaws.com/branding_logo/offline-pin/unavailable+pin.png
2266,Sunfuel - Vijayshree Resort & Heritage Village Ham,,15.28153,76.426659,1,0,https://d3orevttu06iqr.cloudfront.net/branding_logo/offline-pin/unavailable+pin.png,https://d3orevttu06iqr.cloudfront.net/branding_logo/unavailable+select.png
2538,Statiq Double Tree By Hilton Gurgaon Station,,28.422285,77.104721,1,0,https://d3orevttu06iqr.cloudfront.net/charging-pin/normal+pin.png,https://d3orevttu06iqr.cloudfront.net/charging-pin/Statiq+selected.png
2704,Sunfuel - Radisson Resort Hatgad Saputara,,20.52274,73.75203,1,0,https://d3orevttu06iqr.cloudfront.net/branding_logo/offline-pin/unavailable+pin.png,https://d3orevttu06iqr.cloudfront.net/branding_logo/unavailable+select.png
2706,Statiq Jitendra Motors Nashik Station,,19.955532,73.756073,1,0,https://d3orevttu06iqr.cloudfront.net/charging-pin/normal+pin.png,https://d3orevttu06iqr.cloudfront.net/charging-pin/Statiq+selected.png
2708,GHMC AS Rao Nagar Colony Park Station park,,17.480146,78.555634,1,0,https://d3orevttu06iqr.cloudfront.net/branding_logo/offline-pin/unavailable+pin.png,https://statiq-images-prod.s3.ap-south-1.amazonaws.com/branding_logo/offline-pin/unavailable+pin.png
2712,Statiq Shri Niwas Bar and Restaurant Station,,18.235701,74.765999,1,0,https://d3orevttu06iqr.cloudfront.net/charging-pin/normal+pin.png,https://d3orevttu06iqr.cloudfront.net/charging-pin/Statiq+selected.png
2714,Sanathnagar IT Park,,17.456776,78.442947,1,0,https://d3orevttu06iqr.cloudfront.net/charging-pin/normal+pin.png,https://d3orevttu06iqr.cloudfront.net/charging-pin/Statiq+selected.png
2841,"Vijay garden colony park, EV Charging Station",,17.372452,78.567909,1,0,https://d3orevttu06iqr.cloudfront.net/branding_logo/offline-pin/unavailable+pin.png,https://statiq-images-prod.s3.ap-south-1.amazonaws.com/branding_logo/offline-pin/unavailable+pin.png
2842,REIL House Charging Station,,26.869108,75.7621,1,0,https://statiq-images-prod.s3.ap-south-1.amazonaws.com/branding_logo/offline-pin/unavailable+pin.png,https://statiq-images-prod.s3.ap-south-1.amazonaws.com/branding_logo/unavailable+select.png
2843,Statiq AMPL Chennai-MMH05 Station,,13.0718,80.222397,1,0,https://d3orevttu06iqr.cloudfront.net/charging-pin/normal+pin.png,https://d3orevttu06iqr.cloudfront.net/charging-pin/Statiq+selected.png
2844,Statiq Unnati Motors Nagpur Station,,21.207035,79.151237,1,0,https://d3orevttu06iqr.cloudfront.net/charging-pin/Statiq+charging.png,https://d3orevttu06iqr.cloudfront.net/charging-pin/Statiq+charging+selected.png
2845,Statiq Eram Motors Kozhikode Station,,11.1815,75.849403,1,0,https://d3orevttu06iqr.cloudfront.net/charging-pin/normal+pin.png,https://d3orevttu06iqr.cloudfront.net/charging-pin/Statiq+selected.png
2850,Beside Cherlapalli Bus Stop,,17.463289,78.611839,1,0,https://d3orevttu06iqr.cloudfront.net/charging-pin/normal+pin.png,https://d3orevttu06iqr.cloudfront.net/charging-pin/Statiq+selected.png
2857,Statiq Saravana Bhavan Classic New Station,,12.55368,78.18824,1,0,https://d3orevttu06iqr.cloudfront.net/charging-pin/normal+pin.png,https://d3orevttu06iqr.cloudfront.net/charging-pin/Statiq+selected.png
2858,Statiq Indo American Diner Station,,30.549801,76.484596,1,0,https://d3orevttu06iqr.cloudfront.net/charging-pin/normal+pin.png,https://d3orevttu06iqr.cloudfront.net/charging-pin/Statiq+selected.png
2859,Statiq JS Four Wheel Motors Alwar Station,,27.552,76.646004,1,0,https://d3orevttu06iqr.cloudfront.net/charging-pin/normal+pin.png,https://d3orevttu06iqr.cloudfront.net/charging-pin/Statiq+selected.png
2860,Statiq JS Four Wheel Motors Bharatpur Station,,27.271578,77.433098,1,0,https://d3orevttu06iqr.cloudfront.net/charging-pin/normal+pin.png,https://d3orevttu06iqr.cloudfront.net/charging-pin/Statiq+selected.png
2861,Statiq Hotel Rajdhani Palace Station,,18.719545,74.187195,1,0,https://d3orevttu06iqr.cloudfront.net/branding_logo/offline-pin/unavailable+pin.png,https://statiq-images-prod.s3.ap-south-1.amazonaws.com/branding_logo/offline-pin/unavailable+pin.png
2862,Statiq BSES Hub Lodhi Colony,,28.587475,77.226334,1,0,https://d3orevttu06iqr.cloudfront.net/charging-pin/normal+pin.png,https://d3orevttu06iqr.cloudfront.net/charging-pin/Statiq+selected.png
2863,Statiq Swadisht Family Restaurant,,15.4336,74.462997,1,0,https://d3orevttu06iqr.cloudfront.net/branding_logo/offline-pin/unavailable+pin.png,https://statiq-images-prod.s3.ap-south-1.amazonaws.com/branding_logo/offline-pin/unavailable+pin.png
2864,Statiq Mahindra Bhilwara Agro Station,,25.38386,74.621078,1,0,https://d3orevttu06iqr.cloudfront.net/charging-pin/Statiq+charging.png,https://d3orevttu06iqr.cloudfront.net/charging-pin/Statiq+charging+selected.png
2865,Statiq Nexus Westend Mall Station,,18.561817,73.806984,1,0,https://d3orevttu06iqr.cloudfront.net/charging-pin/normal+pin.png,https://d3orevttu06iqr.cloudfront.net/charging-pin/Statiq+selected.png
2866,Hyundai Arabian Garden Seafood Station,,12.8978,79.519699,1,0,https://d3orevttu06iqr.cloudfront.net/network-branding/Hyundai/hyundai-online-not-selected.png,https://d3orevttu06iqr.cloudfront.net/network-branding/Hyundai/hyundai-online-selected.png
2867,Statiq Westend Center One Station,,18.563307,73.807434,1,0,https://d3orevttu06iqr.cloudfront.net/charging-pin/normal+pin.png,https://d3orevttu06iqr.cloudfront.net/charging-pin/Statiq+selected.png
2871,Sunfuel - Park Inn by Radisson New Delhi IP Extens,,28.630911,77.314659,1,0,https://d3orevttu06iqr.cloudfront.net/branding_logo/offline-pin/unavailable+pin.png,https://d3orevttu06iqr.cloudfront.net/branding_logo/unavailable+select.png
2873,"Sunfuel - Evolve Back Kamalapura Palace, Hampi",,15.2754,76.479362,1,0,https://d3orevttu06iqr.cloudfront.net/charging-pin/Sunfuel+-+default.png,https://d3orevttu06iqr.cloudfront.net/charging-pin/Sunfuel+-+selected.png
2875,Statiq Hyundai Testing Station,,28.46087,77.30762,1,0,https://d3orevttu06iqr.cloudfront.net/branding_logo/offline-pin/unavailable+pin.png,https://statiq-images-prod.s3.ap-south-1.amazonaws.com/branding_logo/offline-pin/unavailable+pin.png
3557,"Sunfuel - Fortune JP Palace, Mysore",,12.31923,76.663177,1,0,https://d3orevttu06iqr.cloudfront.net/branding_logo/offline-pin/unavailable+pin.png,https://d3orevttu06iqr.cloudfront.net/branding_logo/unavailable+select.png
3558,Beside Shell Petrol pump EV Charging Station,,17.411079,78.550262,1,0,https://d3orevttu06iqr.cloudfront.net/charging-pin/normal+pin.png,https://d3orevttu06iqr.cloudfront.net/charging-pin/Statiq+selected.png
3559,Habsiguda opposite metro pillar C929 EV Charging S,,17.409857,78.552246,1,0,https://d3orevttu06iqr.cloudfront.net/charging-pin/normal+pin.png,https://d3orevttu06iqr.cloudfront.net/charging-pin/Statiq+selected.png
3565,Opposite Imperial Hotel EV Charging Station,,17.397423,78.419769,1,0,https://d3orevttu06iqr.cloudfront.net/charging-pin/normal+pin.png,https://d3orevttu06iqr.cloudfront.net/charging-pin/Statiq+selected.png
3575,Sachivalaya nagar Kaman EV Charging Station,,17.329096,78.569298,1,0,https://d3orevttu06iqr.cloudfront.net/charging-pin/normal+pin.png,https://d3orevttu06iqr.cloudfront.net/charging-pin/Statiq+selected.png
3578,Statiq Siri Motors Station,,12.714272,77.884613,1,0,https://d3orevttu06iqr.cloudfront.net/branding_logo/offline-pin/unavailable+pin.png,https://statiq-images-prod.s3.ap-south-1.amazonaws.com/branding_logo/offline-pin/unavailable+pin.png
3579,WTT Mall,"C-1, Captain Vijyant Thapar Marg, H Block, Se",28.576845,77.317095,1,0,https://d3orevttu06iqr.cloudfront.net/charging-pin/eFill+charging.png,https://d3orevttu06iqr.cloudfront.net/charging-pin/eFill+charging+selected.png
3580,Statiq M&M- Bellary Motors Station,,15.13972,76.970589,1,0,https://d3orevttu06iqr.cloudfront.net/branding_logo/offline-pin/unavailable+pin.png,https://statiq-images-prod.s3.ap-south-1.amazonaws.com/branding_logo/offline-pin/unavailable+pin.png
3583,Statiq AdWall ITC Memento Station,,27.018648,75.896973,1,0,https://d3orevttu06iqr.cloudfront.net/charging-pin/normal+pin.png,https://d3orevttu06iqr.cloudfront.net/charging-pin/Statiq+selected.png
3584,Statiq Hilton Garden Inn Lucknow Station,,26.864018,81.008428,1,0,https://d3orevttu06iqr.cloudfront.net/charging-pin/normal+pin.png,https://d3orevttu06iqr.cloudfront.net/charging-pin/Statiq+selected.png
3586,Statiq DoubleTree Suites by Hilton Bangalore ORR Charging,,12.9193,77.6651,1,0,https://d3orevttu06iqr.cloudfront.net/charging-pin/normal+pin.png,https://d3orevttu06iqr.cloudfront.net/charging-pin/Statiq+selected.png
3587,Statiq ROF Ananda Station,,28.41474,76.906418,1,0,https://d3orevttu06iqr.cloudfront.net/charging-pin/normal+pin.png,https://d3orevttu06iqr.cloudfront.net/charging-pin/Statiq+selected.png
3592,Statiq Derik Motors Station,,8.66844,77.7183,1,0,https://d3orevttu06iqr.cloudfront.net/charging-pin/normal+pin.png,https://d3orevttu06iqr.cloudfront.net/charging-pin/Statiq+selected.png
3593,Statiq CAI Auto Station,,11.3589,77.714798,1,0,https://d3orevttu06iqr.cloudfront.net/charging-pin/normal+pin.png,https://d3orevttu06iqr.cloudfront.net/charging-pin/Statiq+selected.png
3596,Near Deloitee Meenaksh  EV Charging Station,,17.442509,78.371384,1,0,https://d3orevttu06iqr.cloudfront.net/branding_logo/offline-pin/unavailable+pin.png,https://statiq-images-prod.s3.ap-south-1.amazonaws.com/branding_logo/offline-pin/unavailable+pin.png
3599,Statiq Hotel Dharnika Station,,12.98746,76.873352,1,0,https://d3orevttu06iqr.cloudfront.net/charging-pin/normal+pin.png,https://d3orevttu06iqr.cloudfront.net/charging-pin/Statiq+selected.png
3656,"MQ Cafe, Thotacherla, Andhra Pradesh","MQ Cafe, Beside National highway-65, Thotacha",16.811573,80.249638,1,0,https://d3orevttu06iqr.cloudfront.net/charging-pin/eFill+-+default.png,https://d3orevttu06iqr.cloudfront.net/charging-pin/eFill+-+selected.png
3658,Solanki And Sons EV Charging Station,"P723+HV2, Chandran Menon Rd, Shahu Market Yar",16.701386,74.25464,1,0,https://d3orevttu06iqr.cloudfront.net/charging-pin/eFill+-+default.png,https://d3orevttu06iqr.cloudfront.net/charging-pin/eFill+-+selected.png
3660,Patil Charging Station,"G8Q9+3P2, Koganoli, Karnataka 591215, India",16.537637,74.319266,1,0,https://d3orevttu06iqr.cloudfront.net/charging-pin/eFill+-+default.png,https://d3orevttu06iqr.cloudfront.net/charging-pin/eFill+-+selected.png
3663,Avani Resorts Charging Station,,31.824162,76.158852,1,0,https://statiq-images-prod.s3.ap-south-1.amazonaws.com/branding_logo/offline-pin/unavailable+pin.png,https://statiq-images-prod.s3.ap-south-1.amazonaws.com/branding_logo/unavailable+select.png
3664,Statiq Hotel Four Season Station,,12.383058,76.031527,1,0,https://d3orevttu06iqr.cloudfront.net/charging-pin/normal+pin.png,https://d3orevttu06iqr.cloudfront.net/charging-pin/Statiq+selected.png
3668,Sachivalaya nagar Community Hall EV Charging Stati,,17.328781,78.572197,1,0,https://d3orevttu06iqr.cloudfront.net/charging-pin/normal+pin.png,https://d3orevttu06iqr.cloudfront.net/charging-pin/Statiq+selected.png
3669,33/11 KV Uppal Sub-station EV Charging Station,,17.40173,78.562286,1,0,https://d3orevttu06iqr.cloudfront.net/charging-pin/Statiq+charging.png,https://d3orevttu06iqr.cloudfront.net/charging-pin/Statiq+charging+selected.png
3670,Statiq Hilton Jaipur Station,,26.900715,75.784256,1,0,https://d3orevttu06iqr.cloudfront.net/charging-pin/normal+pin.png,https://d3orevttu06iqr.cloudfront.net/charging-pin/Statiq+selected.png
3674,Statiq Noor Residency Station,,12.02258,79.536587,1,0,https://d3orevttu06iqr.cloudfront.net/branding_logo/offline-pin/unavailable+pin.png,https://statiq-images-prod.s3.ap-south-1.amazonaws.com/branding_logo/offline-pin/unavailable+pin.png
3675,Statiq Hilton Garden Inn Trivandrum Station,,8.49985,76.950302,1,0,https://d3orevttu06iqr.cloudfront.net/charging-pin/normal+pin.png,https://d3orevttu06iqr.cloudfront.net/charging-pin/Statiq+selected.png
3676,Statiq CBC Motors Station,,8.4664,76.939201,1,0,https://d3orevttu06iqr.cloudfront.net/charging-pin/normal+pin.png,https://d3orevttu06iqr.cloudfront.net/charging-pin/Statiq+selected.png
3677,Statiq x TATA.ev Mashoor Chotiwala Station,,29.009701,77.652901,1,0,https://d3orevttu06iqr.cloudfront.net/charging-pin/normal+pin.png,https://d3orevttu06iqr.cloudfront.net/charging-pin/Statiq+selected.png
3678,Statiq Somya Vehicle Indore Station,,22.651575,75.82119,1,0,https://d3orevttu06iqr.cloudfront.net/charging-pin/normal+pin.png,https://d3orevttu06iqr.cloudfront.net/charging-pin/Statiq+selected.png
3680,Statiq DoubleTree by Hilton Jaipur Amer Station,,27.046974,75.905319,1,0,https://d3orevttu06iqr.cloudfront.net/charging-pin/normal+pin.png,https://d3orevttu06iqr.cloudfront.net/charging-pin/Statiq+selected.png
3685,KS Motor Charging Station,,26.918571,75.800827,1,0,https://d3orevttu06iqr.cloudfront.net/branding_logo/offline-pin/unavailable+pin.png,https://statiq-images-prod.s3.ap-south-1.amazonaws.com/branding_logo/offline-pin/unavailable+pin.png
3720,Statiq ITC Jim Corbett Station,,29.53441,79.200546,1,0,https://d3orevttu06iqr.cloudfront.net/charging-pin/normal+pin.png,https://d3orevttu06iqr.cloudfront.net/charging-pin/Statiq+selected.png
3721,33/11 KV Bowenpally Sub-station EV Charging Statio,,17.461943,78.467491,1,0,https://d3orevttu06iqr.cloudfront.net/charging-pin/normal+pin.png,https://d3orevttu06iqr.cloudfront.net/charging-pin/Statiq+selected.png
3722,33/11 KV Hakimpet Sub-station EV Charging Station,,17.526794,78.523056,1,0,https://d3orevttu06iqr.cloudfront.net/branding_logo/offline-pin/unavailable+pin.png,https://statiq-images-prod.s3.ap-south-1.amazonaws.com/branding_logo/offline-pin/unavailable+pin.png
3723,Statiq Mahindra IT SEZ Station,,26.806713,75.642578,1,0,https://d3orevttu06iqr.cloudfront.net/charging-pin/normal+pin.png,https://d3orevttu06iqr.cloudfront.net/charging-pin/Statiq+selected.png
3726,Statiq RMZ Infinity Station,,28.490259,77.078423,1,0,https://d3orevttu06iqr.cloudfront.net/charging-pin/normal+pin.png,https://d3orevttu06iqr.cloudfront.net/charging-pin/Statiq+selected.png
3727,33/11 KV HMT Sub-station EV Charging Station,,17.500334,78.451431,1,0,https://d3orevttu06iqr.cloudfront.net/charging-pin/normal+pin.png,https://d3orevttu06iqr.cloudfront.net/charging-pin/Statiq+selected.png
3728,132/33 KV GIS Fever Hospital Substation EV Chargin,,17.396372,78.499413,1,0,https://d3orevttu06iqr.cloudfront.net/charging-pin/Statiq+charging.png,https://d3orevttu06iqr.cloudfront.net/charging-pin/Statiq+charging+selected.png
3731,Statiq Windsor Grand Station,,28.542233,77.340675,1,0,https://d3orevttu06iqr.cloudfront.net/branding_logo/offline-pin/unavailable+pin.png,https://statiq-images-prod.s3.ap-south-1.amazonaws.com/branding_logo/offline-pin/unavailable+pin.png
3900,Statiq DMRC Hub Shahdara Metro Station,,28.67379,77.289291,1,0,https://d3orevttu06iqr.cloudfront.net/charging-pin/normal+pin.png,https://d3orevttu06iqr.cloudfront.net/charging-pin/Statiq+selected.png
3901,Vivekananda nagar park EV Charging Station,,17.327856,78.565659,1,0,https://d3orevttu06iqr.cloudfront.net/charging-pin/normal+pin.png,https://d3orevttu06iqr.cloudfront.net/charging-pin/Statiq+selected.png
3904,SK International Innn Charging Station,,13.133041,78.220505,1,0,https://d3orevttu06iqr.cloudfront.net/branding_logo/offline-pin/unavailable+pin.png,https://statiq-images-prod.s3.ap-south-1.amazonaws.com/branding_logo/offline-pin/unavailable+pin.png
3905,Olde Bangalore Charging Station,,13.191154,77.622505,1,0,https://d3orevttu06iqr.cloudfront.net/branding_logo/offline-pin/unavailable+pin.png,https://statiq-images-prod.s3.ap-south-1.amazonaws.com/branding_logo/offline-pin/unavailable+pin.png
3906,MC Suites Inn Charging Station,,12.267792,76.643654,1,0,https://d3orevttu06iqr.cloudfront.net/branding_logo/offline-pin/unavailable+pin.png,https://statiq-images-prod.s3.ap-south-1.amazonaws.com/branding_logo/offline-pin/unavailable+pin.png
3907,NGEF Estate,,12.989658,77.705353,1,0,https://d3orevttu06iqr.cloudfront.net/branding_logo/offline-pin/unavailable+pin.png,https://statiq-images-prod.s3.ap-south-1.amazonaws.com/branding_logo/offline-pin/unavailable+pin.png
4728,Statiq Lakshman Kunj Ayodhya Station,,26.771999,82.124199,1,0,https://d3orevttu06iqr.cloudfront.net/charging-pin/normal+pin.png,https://d3orevttu06iqr.cloudfront.net/charging-pin/Statiq+selected.png
4729,Statiq Shrijee Motors Mahindra Showroom Station,,23.571699,72.369797,1,0,https://d3orevttu06iqr.cloudfront.net/charging-pin/Statiq+charging.png,https://d3orevttu06iqr.cloudfront.net/charging-pin/Statiq+charging+selected.png
4730,Statiq BSES Hub Central Market Punjabi Bag,,28.670954,77.133545,1,0,https://d3orevttu06iqr.cloudfront.net/charging-pin/normal+pin.png,https://d3orevttu06iqr.cloudfront.net/charging-pin/Statiq+selected.png
4731,Statiq MC Resort Station,,11.696746,76.635911,1,0,https://d3orevttu06iqr.cloudfront.net/charging-pin/normal+pin.png,https://d3orevttu06iqr.cloudfront.net/charging-pin/Statiq+selected.png
4733,Opposite DLF Building EV Charging Station,,17.447247,78.35302,1,0,https://d3orevttu06iqr.cloudfront.net/branding_logo/offline-pin/unavailable+pin.png,https://statiq-images-prod.s3.ap-south-1.amazonaws.com/branding_logo/offline-pin/unavailable+pin.png
4735,Mahindra BR Balaji,,19.067753,81.974709,1,0,https://d3orevttu06iqr.cloudfront.net/charging-pin/normal+pin.png,https://d3orevttu06iqr.cloudfront.net/charging-pin/Statiq+selected.png
4736,REIL Govekar Petroleum Station,,15.584965,73.95961,1,0,https://statiq-images-prod.s3.ap-south-1.amazonaws.com/branding_logo/offline-pin/unavailable+pin.png,https://statiq-images-prod.s3.ap-south-1.amazonaws.com/branding_logo/unavailable+select.png
4737,REIL Sairaj Petroleum Station,,15.66159,73.838196,1,0,https://statiq-images-prod.s3.ap-south-1.amazonaws.com/branding_logo/offline-pin/unavailable+pin.png,https://statiq-images-prod.s3.ap-south-1.amazonaws.com/branding_logo/unavailable+select.png
4738,REIL Chaitanya Petroleum Indian Oil Petrol Pump St,,15.395838,74.116547,1,0,https://statiq-images-prod.s3.ap-south-1.amazonaws.com/branding_logo/offline-pin/unavailable+pin.png,https://statiq-images-prod.s3.ap-south-1.amazonaws.com/branding_logo/unavailable+select.png
4739,REIL Goa Auto Services Indian Oil Petrol Pump Stat,,15.63527,73.829536,1,0,https://statiq-images-prod.s3.ap-south-1.amazonaws.com/branding_logo/offline-pin/unavailable+pin.png,https://statiq-images-prod.s3.ap-south-1.amazonaws.com/branding_logo/unavailable+select.png
4740,Statiq DLF Infinity Tower Station,,28.495323,77.091103,1,0,https://d3orevttu06iqr.cloudfront.net/charging-pin/normal+pin.png,https://d3orevttu06iqr.cloudfront.net/charging-pin/Statiq+selected.png
4741,Statiq x TATA.ev Monk Mansion Station,,12.8414,77.664902,1,0,https://d3orevttu06iqr.cloudfront.net/charging-pin/normal+pin.png,https://d3orevttu06iqr.cloudfront.net/charging-pin/Statiq+selected.png
4742,REIL Sharayu Petroleum Station,,15.38278,73.923981,1,0,https://statiq-images-prod.s3.ap-south-1.amazonaws.com/branding_logo/offline-pin/unavailable+pin.png,https://statiq-images-prod.s3.ap-south-1.amazonaws.com/branding_logo/unavailable+select.png
4743,REIL Hp Petrol Pump - Kunde Service Station,,15.27701,73.958412,1,0,https://statiq-images-prod.s3.ap-south-1.amazonaws.com/branding_logo/offline-pin/unavailable+pin.png,https://statiq-images-prod.s3.ap-south-1.amazonaws.com/branding_logo/unavailable+select.png
4744,REIL BANDEKAR AUTO CENTRE Station,,15.61452,73.822449,1,0,https://statiq-images-prod.s3.ap-south-1.amazonaws.com/branding_logo/offline-pin/unavailable+pin.png,https://statiq-images-prod.s3.ap-south-1.amazonaws.com/branding_logo/unavailable+select.png
4745,REIL ARASON GAS CENTRE Station,,15.37699,74.228218,1,0,https://statiq-images-prod.s3.ap-south-1.amazonaws.com/branding_logo/offline-pin/unavailable+pin.png,https://statiq-images-prod.s3.ap-south-1.amazonaws.com/branding_logo/unavailable+select.png
4746,REIL SHREE MAHAMAYA SERVICE STATION,,14.91365,74.083122,1,0,https://statiq-images-prod.s3.ap-south-1.amazonaws.com/branding_logo/offline-pin/unavailable+pin.png,https://statiq-images-prod.s3.ap-south-1.amazonaws.com/branding_logo/unavailable+select.png
4747,REIL P.G. VIRGINCAR(Abdul Adhoc) Station,,15.2719,73.958511,1,0,https://statiq-images-prod.s3.ap-south-1.amazonaws.com/branding_logo/offline-pin/unavailable+pin.png,https://statiq-images-prod.s3.ap-south-1.amazonaws.com/branding_logo/unavailable+select.png
4748,REIL SHREE SAIPRASHAD PETROLEUM Station,,15.62723,73.870842,1,0,https://statiq-images-prod.s3.ap-south-1.amazonaws.com/branding_logo/offline-pin/unavailable+pin.png,https://statiq-images-prod.s3.ap-south-1.amazonaws.com/branding_logo/unavailable+select.png
4749,REIL AMIT TRANSPORT Station,,15.376212,73.904961,1,0,https://statiq-images-prod.s3.ap-south-1.amazonaws.com/branding_logo/offline-pin/unavailable+pin.png,https://statiq-images-prod.s3.ap-south-1.amazonaws.com/branding_logo/unavailable+select.png
4750,REIL SIYA PETROLEUM Station,,15.57202,74.015968,1,0,https://statiq-images-prod.s3.ap-south-1.amazonaws.com/branding_logo/offline-pin/unavailable+pin.png,https://statiq-images-prod.s3.ap-south-1.amazonaws.com/branding_logo/unavailable+select.png
4751,REIL HP Petrol Pump - Kavlekar Fuel Station,,15.37722,73.906937,1,0,https://statiq-images-prod.s3.ap-south-1.amazonaws.com/branding_logo/offline-pin/unavailable+pin.png,https://statiq-images-prod.s3.ap-south-1.amazonaws.com/branding_logo/unavailable+select.png
4752,REIL Bharati Filling Station,,31.033541,77.119057,1,0,https://statiq-images-prod.s3.ap-south-1.amazonaws.com/branding_logo/offline-pin/unavailable+pin.png,https://statiq-images-prod.s3.ap-south-1.amazonaws.com/branding_logo/unavailable+select.png
4753,REIL Swaraj Filling Station,,31.086613,77.194504,1,0,https://statiq-images-prod.s3.ap-south-1.amazonaws.com/branding_logo/offline-pin/unavailable+pin.png,https://statiq-images-prod.s3.ap-south-1.amazonaws.com/branding_logo/unavailable+select.png
4754,REIL JAI HIND FILLING STATION,,30.9282,77.025658,1,0,https://statiq-images-prod.s3.ap-south-1.amazonaws.com/branding_logo/offline-pin/unavailable+pin.png,https://statiq-images-prod.s3.ap-south-1.amazonaws.com/branding_logo/unavailable+select.png
4755,REIL SAI KRIPA FILLING STATION,,31.09527,77.40107,1,0,https://statiq-images-prod.s3.ap-south-1.amazonaws.com/branding_logo/offline-pin/unavailable+pin.png,https://statiq-images-prod.s3.ap-south-1.amazonaws.com/branding_logo/unavailable+select.png
4756,REIL Mehta Filling Station,,31.01075,77.090958,1,0,https://statiq-images-prod.s3.ap-south-1.amazonaws.com/branding_logo/offline-pin/unavailable+pin.png,https://statiq-images-prod.s3.ap-south-1.amazonaws.com/branding_logo/unavailable+select.png
4757,REIL HP Autocade Station,,31.10644,77.173607,1,0,https://statiq-images-prod.s3.ap-south-1.amazonaws.com/branding_logo/offline-pin/unavailable+pin.png,https://statiq-images-prod.s3.ap-south-1.amazonaws.com/branding_logo/unavailable+select.png
4758,REIL Meena Petroleum Station,,26.882681,76.229286,1,0,https://statiq-images-prod.s3.ap-south-1.amazonaws.com/branding_logo/offline-pin/unavailable+pin.png,https://statiq-images-prod.s3.ap-south-1.amazonaws.com/branding_logo/unavailable+select.png
4759,REIL Maan Service Station,,27.881559,76.27845,1,0,https://statiq-images-prod.s3.ap-south-1.amazonaws.com/branding_logo/offline-pin/unavailable+pin.png,https://statiq-images-prod.s3.ap-south-1.amazonaws.com/branding_logo/unavailable+select.png
4760,REIL Tiwari Service Centre Station,,27.133699,75.961403,1,0,https://statiq-images-prod.s3.ap-south-1.amazonaws.com/branding_logo/offline-pin/unavailable+pin.png,https://statiq-images-prod.s3.ap-south-1.amazonaws.com/branding_logo/unavailable+select.png
4761,REIL PRAKASH INDIAN OIL Station,,26.90822,76.393646,1,0,https://statiq-images-prod.s3.ap-south-1.amazonaws.com/branding_logo/offline-pin/unavailable+pin.png,https://statiq-images-prod.s3.ap-south-1.amazonaws.com/branding_logo/unavailable+select.png
4762,REIL AUTOCARE CENTRE -COCO E.M.P Station,,17.44404,78.500389,1,0,https://statiq-images-prod.s3.ap-south-1.amazonaws.com/branding_logo/offline-pin/unavailable+pin.png,https://statiq-images-prod.s3.ap-south-1.amazonaws.com/branding_logo/unavailable+select.png
4763,REIL Shabnam Petrol Bunk Station,,17.352871,78.554131,1,0,https://statiq-images-prod.s3.ap-south-1.amazonaws.com/branding_logo/offline-pin/unavailable+pin.png,https://statiq-images-prod.s3.ap-south-1.amazonaws.com/branding_logo/unavailable+select.png
4764,REIL M.A.SERVICE STATION,,17.439951,78.508865,1,0,https://statiq-images-prod.s3.ap-south-1.amazonaws.com/branding_logo/offline-pin/unavailable+pin.png,https://statiq-images-prod.s3.ap-south-1.amazonaws.com/branding_logo/unavailable+select.png
4765,REIL HITECH FILLING STATION,,17.486589,78.357498,1,0,https://statiq-images-prod.s3.ap-south-1.amazonaws.com/branding_logo/offline-pin/unavailable+pin.png,https://statiq-images-prod.s3.ap-south-1.amazonaws.com/branding_logo/unavailable+select.png
4766,REIL VENKAT REDDY AUTO FUEL NEEDS STATION,,17.54969,78.493706,1,0,https://statiq-images-prod.s3.ap-south-1.amazonaws.com/branding_logo/offline-pin/unavailable+pin.png,https://statiq-images-prod.s3.ap-south-1.amazonaws.com/branding_logo/unavailable+select.png
4767,REIL SRINIVASA SERVICE STATION,,17.52062,78.648499,1,0,https://statiq-images-prod.s3.ap-south-1.amazonaws.com/branding_logo/offline-pin/unavailable+pin.png,https://statiq-images-prod.s3.ap-south-1.amazonaws.com/branding_logo/unavailable+select.png
4768,REIL DAYANAND AUTO SERVICE STATION,,17.52298,78.320686,1,0,https://statiq-images-prod.s3.ap-south-1.amazonaws.com/branding_logo/offline-pin/unavailable+pin.png,https://statiq-images-prod.s3.ap-south-1.amazonaws.com/branding_logo/unavailable+select.png
4769,REIL VENKAT LAKSHMI FUELS STATION,,17.482161,78.315804,1,0,https://statiq-images-prod.s3.ap-south-1.amazonaws.com/branding_logo/offline-pin/unavailable+pin.png,https://statiq-images-prod.s3.ap-south-1.amazonaws.com/branding_logo/unavailable+select.png
4770,REIL AMBADEVI & CO. STATION,,17.336281,78.480392,1,0,https://statiq-images-prod.s3.ap-south-1.amazonaws.com/branding_logo/offline-pin/unavailable+pin.png,https://statiq-images-prod.s3.ap-south-1.amazonaws.com/branding_logo/unavailable+select.png
4771,"REIL citd balanagr,cipete cherlapally STATION",,17.456369,78.361008,1,0,https://statiq-images-prod.s3.ap-south-1.amazonaws.com/branding_logo/offline-pin/unavailable+pin.png,https://statiq-images-prod.s3.ap-south-1.amazonaws.com/branding_logo/unavailable+select.png
4772,REIL cipete cherlapally STATION,,17.395451,78.472458,1,0,https://statiq-images-prod.s3.ap-south-1.amazonaws.com/branding_logo/offline-pin/unavailable+pin.png,https://statiq-images-prod.s3.ap-south-1.amazonaws.com/branding_logo/unavailable+select.png
4773,REIL suguna petronet services STATION,,17.52717,78.429153,1,0,https://statiq-images-prod.s3.ap-south-1.amazonaws.com/branding_logo/offline-pin/unavailable+pin.png,https://statiq-images-prod.s3.ap-south-1.amazonaws.com/branding_logo/unavailable+select.png
4774,REIL HSD/TSRTC Filling Station,,17.48921,78.356773,1,0,https://statiq-images-prod.s3.ap-south-1.amazonaws.com/branding_logo/offline-pin/unavailable+pin.png,https://statiq-images-prod.s3.ap-south-1.amazonaws.com/branding_logo/unavailable+select.png
4775,Allwyn X Road EV Charging Station,,17.494295,78.35025,1,0,https://d3orevttu06iqr.cloudfront.net/branding_logo/offline-pin/unavailable+pin.png,https://statiq-images-prod.s3.ap-south-1.amazonaws.com/branding_logo/offline-pin/unavailable+pin.png
4777,GHMC Serilingampally Zonal Office EV Charging Stat,,17.469204,78.329559,1,0,https://d3orevttu06iqr.cloudfront.net/charging-pin/normal+pin.png,https://d3orevttu06iqr.cloudfront.net/charging-pin/Statiq+selected.png
4779,"Videhi nagar Busstop, Behind Community hall",,17.321072,78.572296,1,0,https://d3orevttu06iqr.cloudfront.net/branding_logo/offline-pin/unavailable+pin.png,https://statiq-images-prod.s3.ap-south-1.amazonaws.com/branding_logo/offline-pin/unavailable+pin.png
4781,REIL SINARI AUTO SERVICE STATION,,15.492556,73.832161,1,0,https://statiq-images-prod.s3.ap-south-1.amazonaws.com/branding_logo/offline-pin/unavailable+pin.png,https://statiq-images-prod.s3.ap-south-1.amazonaws.com/branding_logo/unavailable+select.png
4782,REIL Parrikar Petro Services,,15.56662,73.786232,1,0,https://statiq-images-prod.s3.ap-south-1.amazonaws.com/branding_logo/offline-pin/unavailable+pin.png,https://statiq-images-prod.s3.ap-south-1.amazonaws.com/branding_logo/unavailable+select.png
4783,REIL Anand Service Station,,27.646688,76.133919,1,0,https://statiq-images-prod.s3.ap-south-1.amazonaws.com/branding_logo/offline-pin/unavailable+pin.png,https://statiq-images-prod.s3.ap-south-1.amazonaws.com/branding_logo/unavailable+select.png
4784,REIL Tirupati Fuel Centre,,27.572033,76.074036,1,0,https://statiq-images-prod.s3.ap-south-1.amazonaws.com/branding_logo/offline-pin/unavailable+pin.png,https://statiq-images-prod.s3.ap-south-1.amazonaws.com/branding_logo/unavailable+select.png
4785,"REIL Kesoram Sundarlal, BPCL Petrol Pump",,17.372448,78.565002,1,0,https://statiq-images-prod.s3.ap-south-1.amazonaws.com/branding_logo/offline-pin/unavailable+pin.png,https://statiq-images-prod.s3.ap-south-1.amazonaws.com/branding_logo/unavailable+select.png
4786,REIL HIGRADE SERVICE CENTRE,,17.384022,78.368248,1,0,https://statiq-images-prod.s3.ap-south-1.amazonaws.com/branding_logo/offline-pin/unavailable+pin.png,https://statiq-images-prod.s3.ap-south-1.amazonaws.com/branding_logo/unavailable+select.png
4787,REIL R.K. & SONS Petrol Pump,,17.440735,78.504868,1,0,https://statiq-images-prod.s3.ap-south-1.amazonaws.com/branding_logo/offline-pin/unavailable+pin.png,https://statiq-images-prod.s3.ap-south-1.amazonaws.com/branding_logo/unavailable+select.png
4788,REIL SAI PRIYA FILLING STATION,,17.4093,78.498024,1,0,https://statiq-images-prod.s3.ap-south-1.amazonaws.com/branding_logo/offline-pin/unavailable+pin.png,https://statiq-images-prod.s3.ap-south-1.amazonaws.com/branding_logo/unavailable+select.png
4789,REIL Perfect Kukarpalli/ PERFECT PETROLEUM,,17.535389,78.394417,1,0,https://statiq-images-prod.s3.ap-south-1.amazonaws.com/branding_logo/offline-pin/unavailable+pin.png,https://statiq-images-prod.s3.ap-south-1.amazonaws.com/branding_logo/unavailable+select.png
4790,REIL Bansal Service Station,,27.196236,77.523796,1,0,https://statiq-images-prod.s3.ap-south-1.amazonaws.com/branding_logo/offline-pin/unavailable+pin.png,https://statiq-images-prod.s3.ap-south-1.amazonaws.com/branding_logo/unavailable+select.png
4791,REIL VAMSHI FUEL POINT,,17.396601,78.459846,1,0,https://statiq-images-prod.s3.ap-south-1.amazonaws.com/branding_logo/offline-pin/unavailable+pin.png,https://statiq-images-prod.s3.ap-south-1.amazonaws.com/branding_logo/unavailable+select.png
4792,REIL Shah Petrofina,,17.381008,78.363937,1,0,https://statiq-images-prod.s3.ap-south-1.amazonaws.com/branding_logo/offline-pin/unavailable+pin.png,https://statiq-images-prod.s3.ap-south-1.amazonaws.com/branding_logo/unavailable+select.png
4793,REIL IOCL Laxmi Petroleum,,15.40008,73.82283,1,0,https://statiq-images-prod.s3.ap-south-1.amazonaws.com/branding_logo/offline-pin/unavailable+pin.png,https://statiq-images-prod.s3.ap-south-1.amazonaws.com/branding_logo/unavailable+select.png
4794,REIL Hp Petrol Pump - Pereira Auto,,15.36292,73.941849,1,0,https://statiq-images-prod.s3.ap-south-1.amazonaws.com/branding_logo/offline-pin/unavailable+pin.png,https://statiq-images-prod.s3.ap-south-1.amazonaws.com/branding_logo/unavailable+select.png
4795,REIL Quadros Petroleum,,15.684115,73.832687,1,0,https://statiq-images-prod.s3.ap-south-1.amazonaws.com/branding_logo/offline-pin/unavailable+pin.png,https://statiq-images-prod.s3.ap-south-1.amazonaws.com/branding_logo/unavailable+select.png
4796,REIL Shri Balaji Filling Station,,27.567278,75.990623,1,0,https://statiq-images-prod.s3.ap-south-1.amazonaws.com/branding_logo/offline-pin/unavailable+pin.png,https://statiq-images-prod.s3.ap-south-1.amazonaws.com/branding_logo/unavailable+select.png
4797,REIL MADERNA FILLING STATION,,27.133747,75.961189,1,0,https://statiq-images-prod.s3.ap-south-1.amazonaws.com/branding_logo/offline-pin/unavailable+pin.png,https://statiq-images-prod.s3.ap-south-1.amazonaws.com/branding_logo/unavailable+select.png
4798,REIL KISHAN SERVICE STATION,,17.458403,78.384171,1,0,https://statiq-images-prod.s3.ap-south-1.amazonaws.com/branding_logo/offline-pin/unavailable+pin.png,https://statiq-images-prod.s3.ap-south-1.amazonaws.com/branding_logo/unavailable+select.png
4799,REIL AUTO CARE CENTRE (COCO-NSIC),,17.477085,78.564659,1,0,https://statiq-images-prod.s3.ap-south-1.amazonaws.com/branding_logo/offline-pin/unavailable+pin.png,https://statiq-images-prod.s3.ap-south-1.amazonaws.com/branding_logo/unavailable+select.png
4800,REIL Kakatiya Filling Station,,17.437052,78.663918,1,0,https://statiq-images-prod.s3.ap-south-1.amazonaws.com/branding_logo/offline-pin/unavailable+pin.png,https://statiq-images-prod.s3.ap-south-1.amazonaws.com/branding_logo/unavailable+select.png
4801,REIL SRI BS NARAYAN SERVICE STATION,,17.446007,78.51403,1,0,https://statiq-images-prod.s3.ap-south-1.amazonaws.com/branding_logo/offline-pin/unavailable+pin.png,https://statiq-images-prod.s3.ap-south-1.amazonaws.com/branding_logo/unavailable+select.png
